id,name,address,city,state,area,postal_code,country,phone,lat,lng,price,reserve_url,mobile_reserve_url,image_url
4162,Orsay,1057-59 Lexington Avenue,New York,NY,New York / Tri-State Area,10021,US,2125176400x0,40.772397,-73.960762,3,http://www.opentable.com/single.aspx?rid=4162,http://mobile.opentable.com/opentable/?restId=4162,https://www.opentable.com/img/restimages/4162.jpg
24202,Hill Country - Flatiron,30 West 26th Street,New York,NY,New York / Tri-State Area,10010,US,2122554544x10,40.744163,-73.990471,2,http://www.opentable.com/single.aspx?rid=24202,http://mobile.opentable.com/opentable/?restId=24202,https://www.opentable.com/img/restimages/24202.jpg
97870,Bacchanal,146 Bowery,New York,NY,New York / Tri-State Area,10013,US,646-355-1840x,40.719441,-73.994966,2,http://www.opentable.com/single.aspx?rid=97870,http://mobile.opentable.com/opentable/?restId=97870,https://www.opentable.com/img/restimages/97870.jpg
139675,SKÁL,37 Canal St.,New York,NY,New York / Tri-State Area,10002,US,2127777518,40.71476,-73.990943,3,http://www.opentable.com/single.aspx?rid=139675,http://mobile.opentable.com/opentable/?restId=139675,https://www.opentable.com/img/restimages/139675.jpg
5656,MINT,150 E. 50th Street,New York,NY,New York / Tri-State Area,10022,US,2126448888,40.756,-73.972,3,http://www.opentable.com/single.aspx?rid=5656,http://mobile.opentable.com/opentable/?restId=5656,https://www.opentable.com/img/restimages/5656.jpg
118534,Ariana,138-140 W Houston St,New York,NY,New York / Tri-State Area,10012,US,6466784334x,40.727871,-74.001626,3,http://www.opentable.com/single.aspx?rid=118534,http://mobile.opentable.com/opentable/?restId=118534,https://www.opentable.com/img/restimages/118534.jpg
108091,Hudson Place Restaurant & Bar,538 3rd Ave,New York,NY,New York / Tri-State Area,10016,US,2126866660x,40.747048,-73.97755,2,http://www.opentable.com/single.aspx?rid=108091,http://mobile.opentable.com/opentable/?restId=108091,https://www.opentable.com/img/restimages/108091.jpg
152554,Perla,24 Minetta Lane,New York,NY,New York / Tri-State Area,10012,US,2129331824,40.730469,-74.001262,3,http://www.opentable.com/single.aspx?rid=152554,http://mobile.opentable.com/opentable/?restId=152554,https://www.opentable.com/img/restimages/152554.jpg
112417,Lazzara's Pizza Cafe,221 West 38th Street,New York,NY,New York / Tri-State Area,10018,US,2129447792,40.753932,-73.989547,2,http://www.opentable.com/single.aspx?rid=112417,http://mobile.opentable.com/opentable/?restId=112417,https://www.opentable.com/img/restimages/112417.jpg
108433,CAMAJE Bistro,85 MacDougal St,New York,NY,New York / Tri-State Area,10012,US,2126738184,40.728884,-74.001561,2,http://www.opentable.com/single.aspx?rid=108433,http://mobile.opentable.com/opentable/?restId=108433,https://www.opentable.com/img/restimages/108433.jpg
104296,Barn Joo,893 Broadway,New York,NY,New York / Tri-State Area,10003,US,6463989663x,40.738912,-73.990223,3,http://www.opentable.com/single.aspx?rid=104296,http://mobile.opentable.com/opentable/?restId=104296,https://www.opentable.com/img/restimages/104296.jpg
63580,Mulberry Project,149 Mulberry St.,New York,NY,New York / Tri-State Area,10013,US,6464484536,40.719077,-73.997689,3,http://www.opentable.com/single.aspx?rid=63580,http://mobile.opentable.com/opentable/?restId=63580,https://www.opentable.com/img/restimages/63580.jpg
111841,The Writing Room,1703 2nd Avenue,New York,NY,New York / Tri-State Area,10128,US,2123350075x,40.779544,-73.950638,2,http://www.opentable.com/single.aspx?rid=111841,http://mobile.opentable.com/opentable/?restId=111841,https://www.opentable.com/img/restimages/111841.jpg
52969,Ai Fiori,400 5th Avenue,New York,NY,New York / Tri-State Area,10018,US,2126138660x,40.750228,-73.983714,3,http://www.opentable.com/single.aspx?rid=52969,http://mobile.opentable.com/opentable/?restId=52969,https://www.opentable.com/img/restimages/52969.jpg
38164,Spina,175 Avenue B,New York,NY,New York / Tri-State Area,10009,US,2122532250,40.727479,-73.979187,3,http://www.opentable.com/single.aspx?rid=38164,http://mobile.opentable.com/opentable/?restId=38164,https://www.opentable.com/img/restimages/38164.jpg
95353,Maysville,17 W. 26th St,New York,NY,New York / Tri-State Area,10010,US,6464908240x,40.744061,-73.989671,3,http://www.opentable.com/single.aspx?rid=95353,http://mobile.opentable.com/opentable/?restId=95353,https://www.opentable.com/img/restimages/95353.jpg
101131,Grape & Vine,52 W 13th Street,New York,NY,New York / Tri-State Area,10011,US,2123004525x,40.736317,-73.996523,3,http://www.opentable.com/single.aspx?rid=101131,http://mobile.opentable.com/opentable/?restId=101131,https://www.opentable.com/img/restimages/101131.jpg
99322,Barca,244 Mulberry St.,New York,NY,New York / Tri-State Area,10012,US,2127750112x,40.722925,-73.995806,3,http://www.opentable.com/single.aspx?rid=99322,http://mobile.opentable.com/opentable/?restId=99322,https://www.opentable.com/img/restimages/99322.jpg
135925,Tacombi Fonda Nolita,267 Elizabeth St,New York,NY,New York / Tri-State Area,10012,US,9177270179x,40.724046,-73.993875,2,http://www.opentable.com/single.aspx?rid=135925,http://mobile.opentable.com/opentable/?restId=135925,https://www.opentable.com/img/restimages/135925.jpg
63154,Kori Tribeca,253 Church Street,New York,NY,New York / Tri-State Area,10013,US,212-334-0908x,40.71781,-74.005445,2,http://www.opentable.com/single.aspx?rid=63154,http://mobile.opentable.com/opentable/?restId=63154,https://www.opentable.com/img/restimages/63154.jpg
69439,Kafana,116 Avenue C,New York,NY,New York / Tri-State Area,10009,US,2123538000,40.724426,-73.978581,2,http://www.opentable.com/single.aspx?rid=69439,http://mobile.opentable.com/opentable/?restId=69439,https://www.opentable.com/img/restimages/69439.jpg
64942,Nick & Toni's Cafe Manhattan,100 W. 67th St.,New York,NY,New York / Tri-State Area,10023,US,2124964000x,40.774287,-73.981473,2,http://www.opentable.com/single.aspx?rid=64942,http://mobile.opentable.com/opentable/?restId=64942,https://www.opentable.com/img/restimages/64942.jpg
68272,Dark Horse,17 Murray Street,New York,NY,New York / Tri-State Area,10007,US,2126083900,40.713718,-74.008036,2,http://www.opentable.com/single.aspx?rid=68272,http://mobile.opentable.com/opentable/?restId=68272,https://www.opentable.com/img/restimages/68272.jpg
5274,Dinosaur Bar-B-Que - Harlem,700 west 125th st,New York,NY,New York / Tri-State Area,10027,US,2126941777x,40.818118,-73.960517,2,http://www.opentable.com/single.aspx?rid=5274,http://mobile.opentable.com/opentable/?restId=5274,https://www.opentable.com/img/restimages/5274.jpg
146086,Chapter One,33 Greenwich Avenue,New York,NY,New York / Tri-State Area,10014,US,2128429146,40.734985,-74.000451,2,http://www.opentable.com/single.aspx?rid=146086,http://mobile.opentable.com/opentable/?restId=146086,https://www.opentable.com/img/restimages/146086.jpg
57898,Kyochon,319 5th Avenue,New York,NY,New York / Tri-State Area,10016,US,2127259292,40.747287,-73.985496,2,http://www.opentable.com/single.aspx?rid=57898,http://mobile.opentable.com/opentable/?restId=57898,https://www.opentable.com/img/restimages/57898.jpg
50587,Kin Shop,469 6th Avenue,New York,NY,New York / Tri-State Area,10011,US,2126754295,40.73554,-73.998182,3,http://www.opentable.com/single.aspx?rid=50587,http://mobile.opentable.com/opentable/?restId=50587,https://www.opentable.com/img/restimages/50587.jpg
94081,83 1/2,345-349 East 83rd Street,New York,NY,New York / Tri-State Area,10028,US,2127378312x,40.775211,-73.951233,2,http://www.opentable.com/single.aspx?rid=94081,http://mobile.opentable.com/opentable/?restId=94081,https://www.opentable.com/img/restimages/94081.jpg
2294,Wallsé,344 W. 11th St.,New York,NY,New York / Tri-State Area,10014,US,2123522300x,40.7355,-74.0083,4,http://www.opentable.com/single.aspx?rid=2294,http://mobile.opentable.com/opentable/?restId=2294,https://www.opentable.com/img/restimages/2294.jpg
112918,Tao Downtown,92 Ninth Ave,New York,NY,New York / Tri-State Area,10011,US,2128882724x,40.742614,-74.004205,4,http://www.opentable.com/single.aspx?rid=112918,http://mobile.opentable.com/opentable/?restId=112918,https://www.opentable.com/img/restimages/112918.jpg
78406,Betony,41 West 57th St.,New York,NY,New York / Tri-State Area,10019,US,2124652400x,40.764169,-73.976398,4,http://www.opentable.com/single.aspx?rid=78406,http://mobile.opentable.com/opentable/?restId=78406,https://www.opentable.com/img/restimages/78406.jpg
58909,Bacaro,136 Division Street,New York,NY,New York / Tri-State Area,10002,US,2129415060,40.714571,-73.991544,2,http://www.opentable.com/single.aspx?rid=58909,http://mobile.opentable.com/opentable/?restId=58909,https://www.opentable.com/img/restimages/58909.jpg
108874,da Umberto,107 W 17th St,New York,NY,New York / Tri-State Area,10011,US,212 989 0303,40.739656,-73.995914,4,http://www.opentable.com/single.aspx?rid=108874,http://mobile.opentable.com/opentable/?restId=108874,https://www.opentable.com/img/restimages/108874.jpg
147739,Spiegel,26 1st Avenue,New York,NY,New York / Tri-State Area,10009,US,2122282894,40.723689,-73.987787,2,http://www.opentable.com/single.aspx?rid=147739,http://mobile.opentable.com/opentable/?restId=147739,https://www.opentable.com/img/restimages/147739.jpg
144703,John Dory Oyster Bar,1196 Broadway,New York,NY,New York / Tri-State Area,10001,US,2127929000x,40.745962,-73.988622,4,http://www.opentable.com/single.aspx?rid=144703,http://mobile.opentable.com/opentable/?restId=144703,https://www.opentable.com/img/restimages/144703.jpg
112210,Cagen,414 E 9th St,New York,NY,New York / Tri-State Area,10009,US,2123588800x,40.727626,-73.983795,4,http://www.opentable.com/single.aspx?rid=112210,http://mobile.opentable.com/opentable/?restId=112210,https://www.opentable.com/img/restimages/112210.jpg
147904,Il Mulino Prime,331 West Broadway,New York,NY,New York / Tri-State Area,10013,US,2122260020x,40.722184,-74.003747,4,http://www.opentable.com/single.aspx?rid=147904,http://mobile.opentable.com/opentable/?restId=147904,https://www.opentable.com/img/restimages/147904.jpg
92383,Il Mulino Uptown,37 East 60th,New York,NY,New York / Tri-State Area,10021,US,2127503270x,40.764143,-73.970194,4,http://www.opentable.com/single.aspx?rid=92383,http://mobile.opentable.com/opentable/?restId=92383,https://www.opentable.com/img/restimages/92383.jpg
4582,BLT Prime,111 East 22nd Street,New York,NY,New York / Tri-State Area,10010,US,2129958500,40.739,-73.986,4,http://www.opentable.com/single.aspx?rid=4582,http://mobile.opentable.com/opentable/?restId=4582,https://www.opentable.com/img/restimages/4582.jpg
301,21 Club,21 West 52nd Street,New York,NY,New York / Tri-State Area,10019,US,2125827200x,40.760225,-73.97706,4,http://www.opentable.com/single.aspx?rid=301,http://mobile.opentable.com/opentable/?restId=301,https://www.opentable.com/img/restimages/301.jpg
151969,Room 53,314 W 53rd Street,New York,AL,New York / Tri-State Area,10019,US,6466755341,40.768697,-73.991818,2,http://www.opentable.com/single.aspx?rid=151969,http://mobile.opentable.com/opentable/?restId=151969,https://www.opentable.com/img/restimages/151969.jpg
1791,BONDST,6 Bond Street,New York,NY,New York / Tri-State Area,10012,US,2127772500,40.727194,-73.994692,4,http://www.opentable.com/single.aspx?rid=1791,http://mobile.opentable.com/opentable/?restId=1791,https://www.opentable.com/img/restimages/1791.jpg
105019,44 & X,622 Tenth Ave,New York,NY,New York / Tri-State Area,10036,US,2129771170,40.761123,-73.994355,4,http://www.opentable.com/single.aspx?rid=105019,http://mobile.opentable.com/opentable/?restId=105019,https://www.opentable.com/img/restimages/105019.jpg
102811,The Monarch Room,408 West 15th,New York,NY,New York / Tri-State Area,10011,US,6467907070x,40.741777,-74.005794,4,http://www.opentable.com/single.aspx?rid=102811,http://mobile.opentable.com/opentable/?restId=102811,https://www.opentable.com/img/restimages/102811.jpg
30628,Minetta Tavern,113 MacDougal St,New York,NY,New York / Tri-State Area,10012,US,2124753850x,40.730016,-74.000623,4,http://www.opentable.com/single.aspx?rid=30628,http://mobile.opentable.com/opentable/?restId=30628,https://www.opentable.com/img/restimages/30628.jpg
5003,Morimoto New York,88 10th Avenue,New York,NY,New York / Tri-State Area,10011,US,2129898883,40.743236,-74.007408,4,http://www.opentable.com/single.aspx?rid=5003,http://mobile.opentable.com/opentable/?restId=5003,https://www.opentable.com/img/restimages/5003.jpg
148597,Dylan's Candy Bar,1011 3rd Avenue,New York,NY,New York / Tri-State Area,10065,US,6466198656x,40.762213,-73.96577,2,http://www.opentable.com/single.aspx?rid=148597,http://mobile.opentable.com/opentable/?restId=148597,https://www.opentable.com/img/restimages/148597.jpg
45733,Iguana,240 West 54th Street,New York,NY,New York / Tri-State Area,10019,US,2127655454x,40.76428,-73.983221,2,http://www.opentable.com/single.aspx?rid=45733,http://mobile.opentable.com/opentable/?restId=45733,https://www.opentable.com/img/restimages/45733.jpg
114283,Harlem Tavern,2153 Frederick Douglas Blvd,New York,NY,New York / Tri-State Area,10026,US,2128664500,40.804768,-73.955696,2,http://www.opentable.com/single.aspx?rid=114283,http://mobile.opentable.com/opentable/?restId=114283,https://www.opentable.com/img/restimages/114283.jpg
144265,Paname French Restaurant,1068 2nd Avenue,New York,NY,New York / Tri-State Area,10022,US,2122073737,40.758669,-73.965406,2,http://www.opentable.com/single.aspx?rid=144265,http://mobile.opentable.com/opentable/?restId=144265,https://www.opentable.com/img/restimages/144265.jpg
2370,La Bottega,88 9th Avenue,New York,NY,New York / Tri-State Area,10011,US,2122438400x1,40.742441,-74.003863,2,http://www.opentable.com/single.aspx?rid=2370,http://mobile.opentable.com/opentable/?restId=2370,https://www.opentable.com/img/restimages/2370.jpg
2508,Le Bernardin,155 W. 51st St.,New York,NY,New York / Tri-State Area,10019,US,2125541515,40.761378,-73.981685,4,http://www.opentable.com/single.aspx?rid=2508,http://mobile.opentable.com/opentable/?restId=2508,https://www.opentable.com/img/restimages/2508.jpg
15040,Haru Sushi - Wall Street,One Wall Street Court,New York,NY,New York / Tri-State Area,10005,US,2127856850x,40.707719,-74.011657,2,http://www.opentable.com/single.aspx?rid=15040,http://mobile.opentable.com/opentable/?restId=15040,https://www.opentable.com/img/restimages/15040.jpg
21337,Il Mulino New York,86 West 3rd Street,New York,NY,New York / Tri-State Area,10012,US,2126733783x,40.729829,-73.999091,4,http://www.opentable.com/single.aspx?rid=21337,http://mobile.opentable.com/opentable/?restId=21337,https://www.opentable.com/img/restimages/21337.jpg
83155,Nello Restaurant,696 Madison Avenue,New York,NY,New York / Tri-State Area,10021,US,2129809099,40.765716,-73.969961,4,http://www.opentable.com/single.aspx?rid=83155,http://mobile.opentable.com/opentable/?restId=83155,https://www.opentable.com/img/restimages/83155.jpg
90028,Nanni Restaurant,146 E. 46th St.,New York,NY,New York / Tri-State Area,10017,US,2126974161,40.753535,-73.973707,4,http://www.opentable.com/single.aspx?rid=90028,http://mobile.opentable.com/opentable/?restId=90028,https://www.opentable.com/img/restimages/90028.jpg
36775,Soto,357 6th Avenue,New York,NY,New York / Tri-State Area,10014,US,2124143088,40.732262,-74.000892,4,http://www.opentable.com/single.aspx?rid=36775,http://mobile.opentable.com/opentable/?restId=36775,https://www.opentable.com/img/restimages/36775.jpg
113683,Lil' Frankie's,19 First Avenue,New York,NY,New York / Tri-State Area,10003,US,2124204900x,40.723621,-73.988551,2,http://www.opentable.com/single.aspx?rid=113683,http://mobile.opentable.com/opentable/?restId=113683,https://www.opentable.com/img/restimages/113683.jpg
148657,The RoofBar,127 W. 28th St,New York,NY,New York / Tri-State Area,10014,US,2125555555,40.746525,-73.991804,2,http://www.opentable.com/single.aspx?rid=148657,http://mobile.opentable.com/opentable/?restId=148657,https://www.opentable.com/img/restimages/148657.jpg
77899,Neta,61 West 8th Street,New York,NY,New York / Tri-State Area,10011,US,2125052610x,40.733431,-73.999077,4,http://www.opentable.com/single.aspx?rid=77899,http://mobile.opentable.com/opentable/?restId=77899,https://www.opentable.com/img/restimages/77899.jpg
147853,Spaha Soul,2270 1st Ave,New York,NY,New York / Tri-State Area,10035,US,2124273625,40.796329,-73.934772,3,http://www.opentable.com/single.aspx?rid=147853,http://mobile.opentable.com/opentable/?restId=147853,https://www.opentable.com/img/restimages/147853.jpg
152104,Botequim,132 4th Avenue,New York,NY,New York / Tri-State Area,10003,US,2124321324,40.733342,-73.990192,2,http://www.opentable.com/single.aspx?rid=152104,http://mobile.opentable.com/opentable/?restId=152104,https://www.opentable.com/img/restimages/152104.jpg
63391,Salinas,136 9th Ave.,New York,NY,New York / Tri-State Area,10011,US,2127761990x,40.743639,-74.002992,4,http://www.opentable.com/single.aspx?rid=63391,http://mobile.opentable.com/opentable/?restId=63391,https://www.opentable.com/img/restimages/63391.jpg
22558,Indochine,430 Lafayette Street,New York,NY,New York / Tri-State Area,10003,US,2125055111,40.729241,-73.992523,4,http://www.opentable.com/single.aspx?rid=22558,http://mobile.opentable.com/opentable/?restId=22558,https://www.opentable.com/img/restimages/22558.jpg
148687,Cata,245 Bowery,New York,NY,New York / Tri-State Area,10002,US,2125052282x,40.722619,-73.992783,3,http://www.opentable.com/single.aspx?rid=148687,http://mobile.opentable.com/opentable/?restId=148687,https://www.opentable.com/img/restimages/148687.jpg
27763,Red Egg,202 Centre Street,New York,NY,New York / Tri-State Area,10013,US,2129661123,40.718785,-73.998908,2,http://www.opentable.com/single.aspx?rid=27763,http://mobile.opentable.com/opentable/?restId=27763,https://www.opentable.com/img/restimages/27763.jpg
147499,Tertulia,359 6th Ave,New York,NY,New York / Tri-State Area,10014,US,6465599909,40.732263,-74.000785,3,http://www.opentable.com/single.aspx?rid=147499,http://mobile.opentable.com/opentable/?restId=147499,https://www.opentable.com/img/restimages/147499.jpg
4042,iL Punto,507 9th Ave at 38th St.,New York,NY,New York / Tri-State Area,10018,US,212-244-0088x,40.756121,-73.994651,3,http://www.opentable.com/single.aspx?rid=4042,http://mobile.opentable.com/opentable/?restId=4042,https://www.opentable.com/img/restimages/4042.jpg
145597,Infirmary,1720 2nd Avenue,New York,NY,New York / Tri-State Area,10128,US,5046066280,40.779951,-73.949863,3,http://www.opentable.com/single.aspx?rid=145597,http://mobile.opentable.com/opentable/?restId=145597,https://www.opentable.com/img/restimages/145597.jpg
14788,Bar Boulud,1900 Broadway,New York,NY,New York / Tri-State Area,10023,US,2125950303x,40.771373,-73.982034,2,http://www.opentable.com/single.aspx?rid=14788,http://mobile.opentable.com/opentable/?restId=14788,https://www.opentable.com/img/restimages/14788.jpg
2494,Almond,12 East 22nd Street,New York,NY,New York / Tri-State Area,10010,US,2122287557x,40.7405,-73.9893,3,http://www.opentable.com/single.aspx?rid=2494,http://mobile.opentable.com/opentable/?restId=2494,https://www.opentable.com/img/restimages/2494.jpg
145321,Awadh,2588 Broadway,New York,NY,New York / Tri-State Area,10025,US,6468613241,40.795586,-73.970743,3,http://www.opentable.com/single.aspx?rid=145321,http://mobile.opentable.com/opentable/?restId=145321,https://www.opentable.com/img/restimages/145321.jpg
4534,Jacques 1534,20 Prince Street,New York,NY,New York / Tri-State Area,10012,US,2129668886,40.723,-73.994,2,http://www.opentable.com/single.aspx?rid=4534,http://mobile.opentable.com/opentable/?restId=4534,https://www.opentable.com/img/restimages/4534.jpg
20953,Meson Sevilla,344 West 46th Street,New York,NY,New York / Tri-State Area,10036,US,2122625890,40.760322,-73.989188,2,http://www.opentable.com/single.aspx?rid=20953,http://mobile.opentable.com/opentable/?restId=20953,https://www.opentable.com/img/restimages/20953.jpg
105838,Piccola Cucina Osteria - Spring St.,196 Spring St.,New York,NY,New York / Tri-State Area,10012,US,6464787488,40.725073,-74.003194,2,http://www.opentable.com/single.aspx?rid=105838,http://mobile.opentable.com/opentable/?restId=105838,https://www.opentable.com/img/restimages/105838.jpg
620,Hundred Acres,38 MacDougal St.,New York,NY,New York / Tri-State Area,10012,US,2124757500,40.727236,-74.002626,2,http://www.opentable.com/single.aspx?rid=620,http://mobile.opentable.com/opentable/?restId=620,https://www.opentable.com/img/restimages/620.jpg
28132,The Barrel Room at City Winery,155 Varick Street,New York,NY,New York / Tri-State Area,10013,US,2126080555x476,40.726388,-74.005664,3,http://www.opentable.com/single.aspx?rid=28132,http://mobile.opentable.com/opentable/?restId=28132,https://www.opentable.com/img/restimages/28132.jpg
4226,Taj - New York,48 W. 21st Street,New York,NY,New York / Tri-State Area,10010,US,2126203033,40.7408,-73.992,3,http://www.opentable.com/single.aspx?rid=4226,http://mobile.opentable.com/opentable/?restId=4226,https://www.opentable.com/img/restimages/4226.jpg
4524,Nobu Fifty Seven,40 West 57th Street,New York,NY,New York / Tri-State Area,10019,US,2127573000x,40.764,-73.975,4,http://www.opentable.com/single.aspx?rid=4524,http://mobile.opentable.com/opentable/?restId=4524,https://www.opentable.com/img/restimages/4524.jpg
1615,Annisa,13 Barrow Street,New York,NY,New York / Tri-State Area,10014,US,2127416699x,40.732739,-74.00249,4,http://www.opentable.com/single.aspx?rid=1615,http://mobile.opentable.com/opentable/?restId=1615,https://www.opentable.com/img/restimages/1615.jpg
144640,Corkbuzz Wine Studio,13 E 13th St,New York,NY,New York / Tri-State Area,10003,US,646-873-6071x,40.735038,-73.993193,2,http://www.opentable.com/single.aspx?rid=144640,http://mobile.opentable.com/opentable/?restId=144640,https://www.opentable.com/img/restimages/144640.jpg
115957,Tavola,488 9th Ave,New York,NY,New York / Tri-State Area,10018,US,2122731181x,40.755384,-73.99444,2,http://www.opentable.com/single.aspx?rid=115957,http://mobile.opentable.com/opentable/?restId=115957,https://www.opentable.com/img/restimages/115957.jpg
139885,Fonda Chelsea,189 9th Ave,New York,NY,New York / Tri-State Area,10018,US,9175255252x,40.745515,-74.002263,2,http://www.opentable.com/single.aspx?rid=139885,http://mobile.opentable.com/opentable/?restId=139885,https://www.opentable.com/img/restimages/139885.jpg
4381,Vic's,31 Great Jones,New York,NY,New York / Tri-State Area,10012,US,2122535700,40.727178,-73.993435,2,http://www.opentable.com/single.aspx?rid=4381,http://mobile.opentable.com/opentable/?restId=4381,https://www.opentable.com/img/restimages/4381.jpg
141115,Yuba,105 E. 9th St.,New York,NY,New York / Tri-State Area,10003,US,2127778188,40.730547,-73.990061,3,http://www.opentable.com/single.aspx?rid=141115,http://mobile.opentable.com/opentable/?restId=141115,https://www.opentable.com/img/restimages/141115.jpg
6875,Havana - Alma de Cuba,94 Christopher St.,New York,NY,New York / Tri-State Area,10014,US,2122423800,40.733355,-74.004481,2,http://www.opentable.com/single.aspx?rid=6875,http://mobile.opentable.com/opentable/?restId=6875,https://www.opentable.com/img/restimages/6875.jpg
124642,Gato,324 Lafayette Street,New York,NY,New York / Tri-State Area,10012,US,212-334-6400x,40.725506,-73.995068,4,http://www.opentable.com/single.aspx?rid=124642,http://mobile.opentable.com/opentable/?restId=124642,https://www.opentable.com/img/restimages/124642.jpg
27601,Aldea,31 West 17th Street,New York,NY,New York / Tri-State Area,10011,US,2126757223x,40.738618,-73.993891,3,http://www.opentable.com/single.aspx?rid=27601,http://mobile.opentable.com/opentable/?restId=27601,https://www.opentable.com/img/restimages/27601.jpg
81,Pescatore,955 2nd Ave.,New York,NY,New York / Tri-State Area,10022,US,2127527151x,40.755322,-73.968462,3,http://www.opentable.com/single.aspx?rid=81,http://mobile.opentable.com/opentable/?restId=81,https://www.opentable.com/img/restimages/81.jpg
84841,Candle Cafe West,2427 Broadway,New York,NY,New York / Tri-State Area,10024,US,2127698900x,40.790522,-73.974965,3,http://www.opentable.com/single.aspx?rid=84841,http://mobile.opentable.com/opentable/?restId=84841,https://www.opentable.com/img/restimages/84841.jpg
16273,Les Halles Park Avenue,411 Park Avenue South,New York,NY,New York / Tri-State Area,10016,US,2126794111x,40.743465,-73.983874,2,http://www.opentable.com/single.aspx?rid=16273,http://mobile.opentable.com/opentable/?restId=16273,https://www.opentable.com/img/restimages/16273.jpg
97858,The Marrow,99 Bank Street,New York,NY,New York / Tri-State Area,10014-2109,US,2124286000x,40.736551,-74.006369,3,http://www.opentable.com/single.aspx?rid=97858,http://mobile.opentable.com/opentable/?restId=97858,https://www.opentable.com/img/restimages/97858.jpg
152458,Tuome,536 E. 5th St.,New York,NY,New York / Tri-State Area,10009,US,6468337811x,40.723998,-73.982948,3,http://www.opentable.com/single.aspx?rid=152458,http://mobile.opentable.com/opentable/?restId=152458,https://www.opentable.com/img/restimages/152458.jpg
12724,Papatzul,55 Grand Street,New York,NY,New York / Tri-State Area,10013,US,2122748225,40.722299,-74.003624,3,http://www.opentable.com/single.aspx?rid=12724,http://mobile.opentable.com/opentable/?restId=12724,https://www.opentable.com/img/restimages/12724.jpg
6569,Crispo,240 W. 14th St.,New York,NY,New York / Tri-State Area,10011,US,2122291818,40.739059,-74.000821,2,http://www.opentable.com/single.aspx?rid=6569,http://mobile.opentable.com/opentable/?restId=6569,https://www.opentable.com/img/restimages/6569.jpg
21229,Marc Forgione,134 Reade Street,New York,NY,New York / Tri-State Area,10013,US,2129419401,40.716558,-74.009566,3,http://www.opentable.com/single.aspx?rid=21229,http://mobile.opentable.com/opentable/?restId=21229,https://www.opentable.com/img/restimages/21229.jpg
115345,Pergola,36 West 28th St,New York,NY,New York / Tri-State Area,10001,US,2126794842x,40.745394,-73.989588,2,http://www.opentable.com/single.aspx?rid=115345,http://mobile.opentable.com/opentable/?restId=115345,https://www.opentable.com/img/restimages/115345.jpg
10417,Staghorn Steakhouse,315 West 36th Street,New York,NY,New York / Tri-State Area,10018,US,2122394390,40.751695,-73.98777,4,http://www.opentable.com/single.aspx?rid=10417,http://mobile.opentable.com/opentable/?restId=10417,https://www.opentable.com/img/restimages/10417.jpg
155920,Nagomi,179 Prince St,New York,NY,New York / Tri-State Area,10012,US,2123878230,40.726489,-74.001876,3,http://www.opentable.com/single.aspx?rid=155920,http://mobile.opentable.com/opentable/?restId=155920,https://www.opentable.com/img/restimages/155920.jpg
2431,Mercer Kitchen,99 Prince Street,New York,NY,New York / Tri-State Area,10012,US,2129665454,40.7248,-73.9988,2,http://www.opentable.com/single.aspx?rid=2431,http://mobile.opentable.com/opentable/?restId=2431,https://www.opentable.com/img/restimages/2431.jpg
4254,Murals on 54,65 West 54th Street,New York,NY,New York / Tri-State Area,10019,US,2123147700x,40.7619,-73.9775,2,http://www.opentable.com/single.aspx?rid=4254,http://mobile.opentable.com/opentable/?restId=4254,https://www.opentable.com/img/restimages/4254.jpg
3358,Lure New York,142 Mercer,New York,NY,New York / Tri-State Area,10012,US,2124317676x,40.7246,-73.9984,3,http://www.opentable.com/single.aspx?rid=3358,http://mobile.opentable.com/opentable/?restId=3358,https://www.opentable.com/img/restimages/3358.jpg
4380,Cookshop,156 10th Avenue,New York,NY,New York / Tri-State Area,10011,US,2129244440,40.745632,-74.005661,3,http://www.opentable.com/single.aspx?rid=4380,http://mobile.opentable.com/opentable/?restId=4380,https://www.opentable.com/img/restimages/4380.jpg
1049,Dawat,210 E. 58th St.,New York,NY,New York / Tri-State Area,10022,US,2123557555x,40.760637,-73.966832,3,http://www.opentable.com/single.aspx?rid=1049,http://mobile.opentable.com/opentable/?restId=1049,https://www.opentable.com/img/restimages/1049.jpg
94492,Piora,430 Hudson Street,New York,NY,New York / Tri-State Area,10014,US,2129603801x,40.730619,-74.006532,4,http://www.opentable.com/single.aspx?rid=94492,http://mobile.opentable.com/opentable/?restId=94492,https://www.opentable.com/img/restimages/94492.jpg
111061,Swine,531 Hudson Street,New York,NY,New York / Tri-State Area,10014,US,2122557675x,40.734246,-74.006374,2,http://www.opentable.com/single.aspx?rid=111061,http://mobile.opentable.com/opentable/?restId=111061,https://www.opentable.com/img/restimages/111061.jpg
4205,Savore,200 Spring Street,New York,NY,New York / Tri-State Area,10012,US,2124311212,40.7252,-74.0033,3,http://www.opentable.com/single.aspx?rid=4205,http://mobile.opentable.com/opentable/?restId=4205,https://www.opentable.com/img/restimages/4205.jpg
3579,Serafina,210 West 55th Street,New York,NY,New York / Tri-State Area,10019,US,2123151700x,40.7644,-73.9817,3,http://www.opentable.com/single.aspx?rid=3579,http://mobile.opentable.com/opentable/?restId=3579,https://www.opentable.com/img/restimages/3579.jpg
136114,Mi Nidito,789 9th Ave,New York,NY,New York / Tri-State Area,10019,US,2122650022,40.765214,-73.988098,2,http://www.opentable.com/single.aspx?rid=136114,http://mobile.opentable.com/opentable/?restId=136114,https://www.opentable.com/img/restimages/136114.jpg
18142,Mezzogiorno,195 Spring Street,New York,NY,New York / Tri-State Area,10012,US,2123342112,40.725349,-74.003068,3,http://www.opentable.com/single.aspx?rid=18142,http://mobile.opentable.com/opentable/?restId=18142,https://www.opentable.com/img/restimages/18142.jpg
15751,Market Table,54 Carmine Street,New York,NY,New York / Tri-State Area,10014,US,2122552100x,40.729911,-74.00375,3,http://www.opentable.com/single.aspx?rid=15751,http://mobile.opentable.com/opentable/?restId=15751,https://www.opentable.com/img/restimages/15751.jpg
115729,Gastromarket,315 10th Ave,New York,NY,New York / Tri-State Area,10001,US,2126958080x,40.751123,-74.002069,3,http://www.opentable.com/single.aspx?rid=115729,http://mobile.opentable.com/opentable/?restId=115729,https://www.opentable.com/img/restimages/115729.jpg
24772,Delicatessen,54 Prince Street,New York,NY,New York / Tri-State Area,10012,US,2122260211x,40.723516,-73.996084,2,http://www.opentable.com/single.aspx?rid=24772,http://mobile.opentable.com/opentable/?restId=24772,https://www.opentable.com/img/restimages/24772.jpg
1066,Red Cat,227 Tenth Avenue,New York,NY,New York / Tri-State Area,10011,US,2122421122x,40.747992,-74.00417,3,http://www.opentable.com/single.aspx?rid=1066,http://mobile.opentable.com/opentable/?restId=1066,https://www.opentable.com/img/restimages/1066.jpg
117403,Little Prince,199 Prince Street,New York,NY,New York / Tri-State Area,10012,US,2123350566,40.726719,-74.002745,2,http://www.opentable.com/single.aspx?rid=117403,http://mobile.opentable.com/opentable/?restId=117403,https://www.opentable.com/img/restimages/117403.jpg
103108,Pig and Khao,68 Clinton Street,New York,NY,New York / Tri-State Area,10002,US,2129204485x,40.71925,-73.984737,3,http://www.opentable.com/single.aspx?rid=103108,http://mobile.opentable.com/opentable/?restId=103108,https://www.opentable.com/img/restimages/103108.jpg
138700,Amaranth,21 E. 62nd St.,New York,NJ,New York / Tri-State Area,10065,US,2129806700,40.765821,-73.970277,2,http://www.opentable.com/single.aspx?rid=138700,http://mobile.opentable.com/opentable/?restId=138700,https://www.opentable.com/img/restimages/138700.jpg
139336,Navy,137 Sullivan Street,New York,NY,New York / Tri-State Area,10012,US,2125331137x,40.726783,-74.00179,2,http://www.opentable.com/single.aspx?rid=139336,http://mobile.opentable.com/opentable/?restId=139336,https://www.opentable.com/img/restimages/139336.jpg
94933,El Toro Blanco,257 Sixth Avenue,New York,NY,New York / Tri-State Area,10014,US,2126450193x,40.728969,-74.002547,3,http://www.opentable.com/single.aspx?rid=94933,http://mobile.opentable.com/opentable/?restId=94933,https://www.opentable.com/img/restimages/94933.jpg
174,Molyvos,871 7th Avenue,New York,NY,New York / Tri-State Area,10019,US,2125827500x,40.764426,-73.980646,3,http://www.opentable.com/single.aspx?rid=174,http://mobile.opentable.com/opentable/?restId=174,https://www.opentable.com/img/restimages/174.jpg
151138,Sachi,713 Second Ave.,New York,NY,New York / Tri-State Area,10016,US,2122971883,40.747678,-73.974157,3,http://www.opentable.com/single.aspx?rid=151138,http://mobile.opentable.com/opentable/?restId=151138,https://www.opentable.com/img/restimages/151138.jpg
105322,Lafayette,380 Lafayette Street,New York,NY,New York / Tri-State Area,10003,US,2125333000x,40.727552,-73.993418,3,http://www.opentable.com/single.aspx?rid=105322,http://mobile.opentable.com/opentable/?restId=105322,https://www.opentable.com/img/restimages/105322.jpg
15940,Plunge Bar,18 Ninth Ave,New York,NY,New York / Tri-State Area,10014,US,2126606736,40.739406,-74.005377,3,http://www.opentable.com/single.aspx?rid=15940,http://mobile.opentable.com/opentable/?restId=15940,https://www.opentable.com/img/restimages/15940.jpg
145207,Cherche Midi,282 Bowery,New York,NY,New York / Tri-State Area,10012,US,212 226 3055x,40.723915,-73.992782,3,http://www.opentable.com/single.aspx?rid=145207,http://mobile.opentable.com/opentable/?restId=145207,https://www.opentable.com/img/restimages/145207.jpg
13642,Giorgione,307 Spring Street,New York,NY,New York / Tri-State Area,10013,US,2123522269,40.725927,-74.00856,3,http://www.opentable.com/single.aspx?rid=13642,http://mobile.opentable.com/opentable/?restId=13642,https://www.opentable.com/img/restimages/13642.jpg
178,Oceana,120 West 49th Street,New York,NY,New York / Tri-State Area,10020,US,212 759 5941x,40.759164,-73.981365,3,http://www.opentable.com/single.aspx?rid=178,http://mobile.opentable.com/opentable/?restId=178,https://www.opentable.com/img/restimages/178.jpg
139495,Heartwood,184 8th Avenue,New York,NY,New York / Tri-State Area,10011,US,6464765458x,40.742953,-73.999832,3,http://www.opentable.com/single.aspx?rid=139495,http://mobile.opentable.com/opentable/?restId=139495,https://www.opentable.com/img/restimages/139495.jpg
345,Bottino,246 10th Ave,New York,NY,New York / Tri-State Area,10001,US,2122066767,40.748476,-74.003339,3,http://www.opentable.com/single.aspx?rid=345,http://mobile.opentable.com/opentable/?restId=345,https://www.opentable.com/img/restimages/345.jpg
110842,Ciccio,190 6th Ave,New York,NY,New York / Tri-State Area,10013,US,6464769498x,40.725858,-74.003878,2,http://www.opentable.com/single.aspx?rid=110842,http://mobile.opentable.com/opentable/?restId=110842,https://www.opentable.com/img/restimages/110842.jpg
2331,Il Buco,47 Bond St.,New York,NY,New York / Tri-State Area,10012,US,2125331932x,40.7263,-73.9933,3,http://www.opentable.com/single.aspx?rid=2331,http://mobile.opentable.com/opentable/?restId=2331,https://www.opentable.com/img/restimages/2331.jpg
108868,Suite 36 Restaurant & Sports Lounge,16 West 36th Street,New York,NY,New York / Tri-State Area,10018,US,2126950036,40.749968,-73.9848,2,http://www.opentable.com/single.aspx?rid=108868,http://mobile.opentable.com/opentable/?restId=108868,https://www.opentable.com/img/restimages/108868.jpg
63442,Lasagna Restaurant,941 2nd Avenue,New York,NY,New York / Tri-State Area,10022,US,2123085353,40.754897,-73.968744,3,http://www.opentable.com/single.aspx?rid=63442,http://mobile.opentable.com/opentable/?restId=63442,https://www.opentable.com/img/restimages/63442.jpg
110815,Minton's,206 W 118th St,New York,NY,New York / Tri-State Area,10026,US,212-243-2222x,40.804723,-73.952243,3,http://www.opentable.com/single.aspx?rid=110815,http://mobile.opentable.com/opentable/?restId=110815,https://www.opentable.com/img/restimages/110815.jpg
108817,Alder,157 Second Avenue,New York,NY,New York / Tri-State Area,10003,US,2125391900x,40.729746,-73.987243,3,http://www.opentable.com/single.aspx?rid=108817,http://mobile.opentable.com/opentable/?restId=108817,https://www.opentable.com/img/restimages/108817.jpg
114505,Flinders Lane,162 Ave A,New York,NY,New York / Tri-State Area,10009,US,2122286900x,40.728006,-73.981909,2,http://www.opentable.com/single.aspx?rid=114505,http://mobile.opentable.com/opentable/?restId=114505,https://www.opentable.com/img/restimages/114505.jpg
14140,Aurora - Soho,510 Broome Street,New York,NY,New York / Tri-State Area,10013,US,2123349020,40.723503,-74.00331,3,http://www.opentable.com/single.aspx?rid=14140,http://mobile.opentable.com/opentable/?restId=14140,https://www.opentable.com/img/restimages/14140.jpg
115018,Cedric,185 St Nicholas Ave,New York,NY,New York / Tri-State Area,10026,US,2128667766,40.80631,-73.953,3,http://www.opentable.com/single.aspx?rid=115018,http://mobile.opentable.com/opentable/?restId=115018,https://www.opentable.com/img/restimages/115018.jpg
139909,Beautique,8 W. 58th St.,New York,NY,New York / Tri-State Area,10019,US,2127531200x,40.764191,-73.974793,3,http://www.opentable.com/single.aspx?rid=139909,http://mobile.opentable.com/opentable/?restId=139909,https://www.opentable.com/img/restimages/139909.jpg
85762,Pravda,281 Lafayette Street,New York,NY,New York / Tri-State Area,10012,US,2122264944x,40.723975,-73.996209,3,http://www.opentable.com/single.aspx?rid=85762,http://mobile.opentable.com/opentable/?restId=85762,https://www.opentable.com/img/restimages/85762.jpg
20245,Nino's Positano,890 Second Avenue,New York,NY,New York / Tri-State Area,10017,US,2123555540x,40.753267,-73.969688,3,http://www.opentable.com/single.aspx?rid=20245,http://mobile.opentable.com/opentable/?restId=20245,https://www.opentable.com/img/restimages/20245.jpg
114856,Barawine,200 Lenox Ave,New York,NY,New York / Tri-State Area,10027,US,6467564154x,40.804583,-73.94771,2,http://www.opentable.com/single.aspx?rid=114856,http://mobile.opentable.com/opentable/?restId=114856,https://www.opentable.com/img/restimages/114856.jpg
104584,Feast,102 3rd Ave.,New York,NY,New York / Tri-State Area,10003,US,2125298880,40.732555,-73.98797,2,http://www.opentable.com/single.aspx?rid=104584,http://mobile.opentable.com/opentable/?restId=104584,https://www.opentable.com/img/restimages/104584.jpg
102481,Charlie Bird,5 King Street,New York,NY,New York / Tri-State Area,10012,US,212-235-7133,40.727807,-74.002869,3,http://www.opentable.com/single.aspx?rid=102481,http://mobile.opentable.com/opentable/?restId=102481,https://www.opentable.com/img/restimages/102481.jpg
103945,Chop Shop,254 10th Avenue,New York,NY,New York / Tri-State Area,10001,US,2128200333,40.748698,-74.003228,3,http://www.opentable.com/single.aspx?rid=103945,http://mobile.opentable.com/opentable/?restId=103945,https://www.opentable.com/img/restimages/103945.jpg
88648,Humphrey,851 Sixth Avenue,New York,NY,New York / Tri-State Area,10001,US,2122014065,40.747236,-73.989643,3,http://www.opentable.com/single.aspx?rid=88648,http://mobile.opentable.com/opentable/?restId=88648,https://www.opentable.com/img/restimages/88648.jpg
150853,Comic Strip Live Comedy Club,1568 Second Avenue,New York,NY,New York / Tri-State Area,10028,US,2128619386,40.775301,-73.953626,3,http://www.opentable.com/single.aspx?rid=150853,http://mobile.opentable.com/opentable/?restId=150853,https://www.opentable.com/img/restimages/150853.jpg
103495,Aura Thai - NY,462 9th Avenue,New York,NY,New York / Tri-State Area,10018,US,2129718530,40.754466,-73.995309,2,http://www.opentable.com/single.aspx?rid=103495,http://mobile.opentable.com/opentable/?restId=103495,https://www.opentable.com/img/restimages/103495.jpg
90874,Da Rosina,342 West 46th Street,New York,NY,New York / Tri-State Area,10036,US,9179777373,40.759407,-73.986768,3,http://www.opentable.com/single.aspx?rid=90874,http://mobile.opentable.com/opentable/?restId=90874,https://www.opentable.com/img/restimages/90874.jpg
100252,Epistrophy,200 Mott St.,New York,NY,New York / Tri-State Area,10012,US,2129660904x,40.721262,-73.995477,2,http://www.opentable.com/single.aspx?rid=100252,http://mobile.opentable.com/opentable/?restId=100252,https://www.opentable.com/img/restimages/100252.jpg
20263,Tredici Steak,128 West 26th Street,New York,NY,New York / Tri-State Area,10001,US,2122432085,40.745065,-73.99274,3,http://www.opentable.com/single.aspx?rid=20263,http://mobile.opentable.com/opentable/?restId=20263,https://www.opentable.com/img/restimages/20263.jpg
112696,Vacca Grill & Lounge,416 W 203RD ST,New York,NY,New York / Tri-State Area,10034,US,2125440070,40.861306,-73.91924,2,http://www.opentable.com/single.aspx?rid=112696,http://mobile.opentable.com/opentable/?restId=112696,https://www.opentable.com/img/restimages/112696.jpg
106936,Omar's,21 W. 9th Street,New York,NY,New York / Tri-State Area,10011,US,2126775242x,40.732473,-74.000627,3,http://www.opentable.com/single.aspx?rid=106936,http://mobile.opentable.com/opentable/?restId=106936,https://www.opentable.com/img/restimages/106936.jpg
100177,The General,199 Bowery St.,New York,NY,New York / Tri-State Area,10002,US,2122717101x,40.720908,-73.993554,3,http://www.opentable.com/single.aspx?rid=100177,http://mobile.opentable.com/opentable/?restId=100177,https://www.opentable.com/img/restimages/100177.jpg
93481,Woolworth Tower Kitchen,233 Broadway,New York,NY,New York / Tri-State Area,10279,US,2125712930,40.712266,-74.007918,3,http://www.opentable.com/single.aspx?rid=93481,http://mobile.opentable.com/opentable/?restId=93481,https://www.opentable.com/img/restimages/93481.jpg
114091,Cafe SFA,611 5th Avenue,New York,NY,New York / Tri-State Area,10021,US,2129404080x,40.758235,-73.976461,2,http://www.opentable.com/single.aspx?rid=114091,http://mobile.opentable.com/opentable/?restId=114091,https://www.opentable.com/img/restimages/114091.jpg
5008,Intermezzo,202 8th Ave,New York,NY,New York / Tri-State Area,10011,US,2129293433,40.744,-74.0,3,http://www.opentable.com/single.aspx?rid=5008,http://mobile.opentable.com/opentable/?restId=5008,https://www.opentable.com/img/restimages/5008.jpg
20383,Shinbashi,7 East 48th Street,New York,NY,New York / Tri-State Area,10017,US,2128131009,40.75711,-73.977696,3,http://www.opentable.com/single.aspx?rid=20383,http://mobile.opentable.com/opentable/?restId=20383,https://www.opentable.com/img/restimages/20383.jpg
106720,Fresco by Scotto,34 East 52nd st,New York,NY,New York / Tri-State Area,10022,US,2129353434,40.758876,-73.974377,3,http://www.opentable.com/single.aspx?rid=106720,http://mobile.opentable.com/opentable/?restId=106720,https://www.opentable.com/img/restimages/106720.jpg
105670,Malaga Restaurant,406 E 73rd Street,New York,NY,New York / Tri-State Area,10021,US,2127377659,40.768019,-73.955012,3,http://www.opentable.com/single.aspx?rid=105670,http://mobile.opentable.com/opentable/?restId=105670,https://www.opentable.com/img/restimages/105670.jpg
118291,Blue Bar at India House,1 Hanover Square,New York,NY,New York / Tri-State Area,10004,US,212-269-2323x2,40.704473,-74.009891,2,http://www.opentable.com/single.aspx?rid=118291,http://mobile.opentable.com/opentable/?restId=118291,https://www.opentable.com/img/restimages/118291.jpg
6585,Montebello Ristorante Italiano,120 E. 56th St.,New York,NY,New York / Tri-State Area,10022,US,2127531447x,40.760491,-73.970195,3,http://www.opentable.com/single.aspx?rid=6585,http://mobile.opentable.com/opentable/?restId=6585,https://www.opentable.com/img/restimages/6585.jpg
103849,The Park 112,2080 Frederick Douglass Blvd,New York,NY,New York / Tri-State Area,10026,US,6465246610x,40.802127,-73.956639,2,http://www.opentable.com/single.aspx?rid=103849,http://mobile.opentable.com/opentable/?restId=103849,https://www.opentable.com/img/restimages/103849.jpg
112282,Il Forno,713A 8th Ave,New York,NY,New York / Tri-State Area,10036,US,2122471978,40.759079,-73.988458,2,http://www.opentable.com/single.aspx?rid=112282,http://mobile.opentable.com/opentable/?restId=112282,https://www.opentable.com/img/restimages/112282.jpg
18622,Amali,115 East 60th Street,New York,NY,New York / Tri-State Area,10022,US,2123398363x,40.763271,-73.968637,3,http://www.opentable.com/single.aspx?rid=18622,http://mobile.opentable.com/opentable/?restId=18622,https://www.opentable.com/img/restimages/18622.jpg
75007,Bar Italia,768 Madison Avenue,New York,NY,New York / Tri-State Area,10065,US,9175466676,40.767871,-73.968442,3,http://www.opentable.com/single.aspx?rid=75007,http://mobile.opentable.com/opentable/?restId=75007,https://www.opentable.com/img/restimages/75007.jpg
110224,Quality Italian,57 West 57th Street,New York,NY,New York / Tri-State Area,10019,US,2123901111,40.764275,-73.976631,3,http://www.opentable.com/single.aspx?rid=110224,http://mobile.opentable.com/opentable/?restId=110224,https://www.opentable.com/img/restimages/110224.jpg
777,NIOS,130 West 46th St.,New York,NY,New York / Tri-State Area,10036,US,2124852999x,40.757671,-73.983298,3,http://www.opentable.com/single.aspx?rid=777,http://mobile.opentable.com/opentable/?restId=777,https://www.opentable.com/img/restimages/777.jpg
91255,Spice - Chelsea,236th 8th Ave,New York,NY,New York / Tri-State Area,10011,US,2126204585,40.742546,-74.000489,2,http://www.opentable.com/single.aspx?rid=91255,http://mobile.opentable.com/opentable/?restId=91255,https://www.opentable.com/img/restimages/91255.jpg
115705,Westville Hudson,333 Hudson St,New York,NY,New York / Tri-State Area,10013,US,2127761404x,40.727125,-74.007682,2,http://www.opentable.com/single.aspx?rid=115705,http://mobile.opentable.com/opentable/?restId=115705,https://www.opentable.com/img/restimages/115705.jpg
17293,Bobo Restaurant,181 West 10th Street,New York,NY,New York / Tri-State Area,10014,US,2124882626x,40.734297,-74.002619,3,http://www.opentable.com/single.aspx?rid=17293,http://mobile.opentable.com/opentable/?restId=17293,https://www.opentable.com/img/restimages/17293.jpg
117400,The Regency Bar and Grill,540 Park Avenue,New York,NY,New York / Tri-State Area,10065,US,2123394050x,40.764614,-73.969358,3,http://www.opentable.com/single.aspx?rid=117400,http://mobile.opentable.com/opentable/?restId=117400,https://www.opentable.com/img/restimages/117400.jpg
116248,B4,235 East 4th Street,New York,NY,New York / Tri-State Area,10009,US,2125357151x,40.723284,-73.982628,3,http://www.opentable.com/single.aspx?rid=116248,http://mobile.opentable.com/opentable/?restId=116248,https://www.opentable.com/img/restimages/116248.jpg
102517,KOA,12 W 21st Street,New York,NY,New York / Tri-State Area,10010,US,2123885736,40.740614,-73.991511,3,http://www.opentable.com/single.aspx?rid=102517,http://mobile.opentable.com/opentable/?restId=102517,https://www.opentable.com/img/restimages/102517.jpg
126853,BXL Cafe,125 W 43rd St,New York,NY,New York / Tri-State Area,10036,US,2127680200,40.756184,-73.98462,2,http://www.opentable.com/single.aspx?rid=126853,http://mobile.opentable.com/opentable/?restId=126853,https://www.opentable.com/img/restimages/126853.jpg
107287,Hendriks,557 3rd Avenue,New York,NY,New York / Tri-State Area,10016,US,2126868080,40.747395,-73.97649,2,http://www.opentable.com/single.aspx?rid=107287,http://mobile.opentable.com/opentable/?restId=107287,https://www.opentable.com/img/restimages/107287.jpg
85597,Pao,322 Spring,New York,NY,New York / Tri-State Area,10013,US,2123345464,40.725961,-74.009179,2,http://www.opentable.com/single.aspx?rid=85597,http://mobile.opentable.com/opentable/?restId=85597,https://www.opentable.com/img/restimages/85597.jpg
110803,The Cecil,210 W 118th St,New York,NY,New York / Tri-State Area,10026,US,212-866-1262x,40.804807,-73.952244,2,http://www.opentable.com/single.aspx?rid=110803,http://mobile.opentable.com/opentable/?restId=110803,https://www.opentable.com/img/restimages/110803.jpg
101443,The Heath,542 W. 27th,New York,NY,New York / Tri-State Area,10001,US,2125641662x,40.750907,-74.004189,3,http://www.opentable.com/single.aspx?rid=101443,http://mobile.opentable.com/opentable/?restId=101443,https://www.opentable.com/img/restimages/101443.jpg
83113,Kana Tapas Bar,324 Spring St,New York,NY,New York / Tri-State Area,10013,US,2123438180,40.725834,-74.009418,2,http://www.opentable.com/single.aspx?rid=83113,http://mobile.opentable.com/opentable/?restId=83113,https://www.opentable.com/img/restimages/83113.jpg
3466,Abboccato,136 W. 55th,New York,NY,New York / Tri-State Area,10019,US,212 265 4000x,40.7634,-73.9792,3,http://www.opentable.com/single.aspx?rid=3466,http://mobile.opentable.com/opentable/?restId=3466,https://www.opentable.com/img/restimages/3466.jpg
21577,Arno Ristorante,141 West 38th Street,New York,NY,New York / Tri-State Area,10018,US,2129447420,40.753,-73.987515,3,http://www.opentable.com/single.aspx?rid=21577,http://mobile.opentable.com/opentable/?restId=21577,https://www.opentable.com/img/restimages/21577.jpg
86884,Devi,8 East 18th Street,New York,NY,New York / Tri-State Area,10016,US,2126912100x,40.738118,-73.99119,3,http://www.opentable.com/single.aspx?rid=86884,http://mobile.opentable.com/opentable/?restId=86884,https://www.opentable.com/img/restimages/86884.jpg
2589,PUBLIC,210 Elizabeth Street,New York,NY,New York / Tri-State Area,10012,US,2123437011x,40.7222,-73.9942,3,http://www.opentable.com/single.aspx?rid=2589,http://mobile.opentable.com/opentable/?restId=2589,https://www.opentable.com/img/restimages/2589.jpg
97834,Eatery,798 Ninth Ave.,New York,NY,New York / Tri-State Area,10019,US,2127657080x,40.765136,-73.98733,3,http://www.opentable.com/single.aspx?rid=97834,http://mobile.opentable.com/opentable/?restId=97834,https://www.opentable.com/img/restimages/97834.jpg
17707,Sanctuary T,337B West Broadway,New York,NY,New York / Tri-State Area,10013,US,2129417832x,40.722496,-74.003652,2,http://www.opentable.com/single.aspx?rid=17707,http://mobile.opentable.com/opentable/?restId=17707,https://www.opentable.com/img/restimages/17707.jpg
57004,Spasso NYC,551 Hudson,New York,NY,New York / Tri-State Area,10014,US,2128583838x,40.735245,-74.006195,3,http://www.opentable.com/single.aspx?rid=57004,http://mobile.opentable.com/opentable/?restId=57004,https://www.opentable.com/img/restimages/57004.jpg
68347,Cancun,937 8th Avenue,New York,NY,New York / Tri-State Area,10019,US,2123077307,40.765839,-73.983915,2,http://www.opentable.com/single.aspx?rid=68347,http://mobile.opentable.com/opentable/?restId=68347,https://www.opentable.com/img/restimages/68347.jpg
83869,Giovanni Rana Pastificio & Cucina,75 9th Avenue,New York,NY,New York / Tri-State Area,10111,US,2123700975,40.741921,-74.004844,3,http://www.opentable.com/single.aspx?rid=83869,http://mobile.opentable.com/opentable/?restId=83869,https://www.opentable.com/img/restimages/83869.jpg
101851,Momokawa,157 E 28th St,New York,NY,New York / Tri-State Area,10016,US,2126847830,40.742246,-73.981363,2,http://www.opentable.com/single.aspx?rid=101851,http://mobile.opentable.com/opentable/?restId=101851,https://www.opentable.com/img/restimages/101851.jpg
20275,Pala,198 Allen Street,New York,NY,New York / Tri-State Area,10002,US,2126147252,40.722704,-73.98868,2,http://www.opentable.com/single.aspx?rid=20275,http://mobile.opentable.com/opentable/?restId=20275,https://www.opentable.com/img/restimages/20275.jpg
129358,Laduree SOHO,396 West Broadway,New York,NY,New York / Tri-State Area,10012,US,6463927868x,40.724317,-74.00245,2,http://www.opentable.com/single.aspx?rid=129358,http://mobile.opentable.com/opentable/?restId=129358,https://www.opentable.com/img/restimages/129358.jpg
105058,Anassa Taverna,200 East 60th Street,New York,NY,New York / Tri-State Area,10022,US,212-371-5200x,40.762037,-73.966063,3,http://www.opentable.com/single.aspx?rid=105058,http://mobile.opentable.com/opentable/?restId=105058,https://www.opentable.com/img/restimages/105058.jpg
96796,Giardino D'Oro,5 Gold St,New York,NY,New York / Tri-State Area,10038,US,2125146400x,40.707259,-74.007478,3,http://www.opentable.com/single.aspx?rid=96796,http://mobile.opentable.com/opentable/?restId=96796,https://www.opentable.com/img/restimages/96796.jpg
77263,Barrio 47,47 8th Avenue,New York,NY,New York / Tri-State Area,10014,US,2122553900x,40.738522,-74.003968,3,http://www.opentable.com/single.aspx?rid=77263,http://mobile.opentable.com/opentable/?restId=77263,https://www.opentable.com/img/restimages/77263.jpg
2348,Pampano,209 E. 49th St.,New York,NY,New York / Tri-State Area,10017,US,2127514545x,40.7551,-73.971,3,http://www.opentable.com/single.aspx?rid=2348,http://mobile.opentable.com/opentable/?restId=2348,https://www.opentable.com/img/restimages/2348.jpg
116473,The Peacock,24 E. 39th Street,New York,NY,New York / Tri-State Area,10016,US,6468376776x,40.750606,-73.980175,3,http://www.opentable.com/single.aspx?rid=116473,http://mobile.opentable.com/opentable/?restId=116473,https://www.opentable.com/img/restimages/116473.jpg
38020,Le Pescadeux,90 Thompson Street,New York,NY,New York / Tri-State Area,10012,US,2129660021x,40.725135,-74.002087,3,http://www.opentable.com/single.aspx?rid=38020,http://mobile.opentable.com/opentable/?restId=38020,https://www.opentable.com/img/restimages/38020.jpg
17974,La Sirene,558  Broome Street,New York,NY,New York / Tri-State Area,10013,US,2129253061x,40.724507,-74.005684,3,http://www.opentable.com/single.aspx?rid=17974,http://mobile.opentable.com/opentable/?restId=17974,https://www.opentable.com/img/restimages/17974.jpg
103111,Fatty Crab,643 Hudson,New York,NY,New York / Tri-State Area,10014,US,2123523592x,40.738689,-74.006108,3,http://www.opentable.com/single.aspx?rid=103111,http://mobile.opentable.com/opentable/?restId=103111,https://www.opentable.com/img/restimages/103111.jpg
96670,Socarrat Midtown East,953 Second Avenue,New York,NY,New York / Tri-State Area,10022,US,2127590101,40.755252,-73.968451,3,http://www.opentable.com/single.aspx?rid=96670,http://mobile.opentable.com/opentable/?restId=96670,https://www.opentable.com/img/restimages/96670.jpg
3665,Maria Pia,319 West 51st Street,New York,NY,New York / Tri-State Area,10019,US,2127656463,40.7631,-73.9862,3,http://www.opentable.com/single.aspx?rid=3665,http://mobile.opentable.com/opentable/?restId=3665,https://www.opentable.com/img/restimages/3665.jpg
2662,Cellini,65 East 54th St,New York,NY,New York / Tri-State Area,10022,US,2127511555x,40.7602,-73.9774,3,http://www.opentable.com/single.aspx?rid=2662,http://mobile.opentable.com/opentable/?restId=2662,https://www.opentable.com/img/restimages/2662.jpg
19144,Tre,173 Ludlow Street,New York,NY,New York / Tri-State Area,10002,US,2123533353x,40.72185,-73.987714,3,http://www.opentable.com/single.aspx?rid=19144,http://mobile.opentable.com/opentable/?restId=19144,https://www.opentable.com/img/restimages/19144.jpg
100564,Cherry,355 West 16th St.,New York,NY,New York / Tri-State Area,10011,US,2129295800x,40.742087,-74.003623,3,http://www.opentable.com/single.aspx?rid=100564,http://mobile.opentable.com/opentable/?restId=100564,https://www.opentable.com/img/restimages/100564.jpg
109933,Route 66,858 9th Ave,New York,NY,New York / Tri-State Area,10019,US,2129777600,40.766907,-73.986093,2,http://www.opentable.com/single.aspx?rid=109933,http://mobile.opentable.com/opentable/?restId=109933,https://www.opentable.com/img/restimages/109933.jpg
6422,Bella Luna - NYC,584 Columbus Avenue,New York,NY,New York / Tri-State Area,10024,US,2128772267,40.787933,-73.971106,2,http://www.opentable.com/single.aspx?rid=6422,http://mobile.opentable.com/opentable/?restId=6422,https://www.opentable.com/img/restimages/6422.jpg
5417,Torino,1700 Broadway,New York,NY,New York / Tri-State Area,10019,US,2127572233x,40.764,-73.982,3,http://www.opentable.com/single.aspx?rid=5417,http://mobile.opentable.com/opentable/?restId=5417,https://www.opentable.com/img/restimages/5417.jpg
21748,Bistro Milano,1350 Avenue of the Americas,New York,NY,New York / Tri-State Area,10019,US,212-757-2600x,40.762812,-73.977558,3,http://www.opentable.com/single.aspx?rid=21748,http://mobile.opentable.com/opentable/?restId=21748,https://www.opentable.com/img/restimages/21748.jpg
103123,Degustation,239 E. 5th St.,New York,NY,New York / Tri-State Area,10003,US,2129791012,40.72696,-73.989273,3,http://www.opentable.com/single.aspx?rid=103123,http://mobile.opentable.com/opentable/?restId=103123,https://www.opentable.com/img/restimages/103123.jpg
87049,Benihana - New York,47 W 56th St,New York,NY,New York / Tri-State Area,10019,US,2125810930,40.763247,-73.976703,2,http://www.opentable.com/single.aspx?rid=87049,http://mobile.opentable.com/opentable/?restId=87049,https://www.opentable.com/img/restimages/87049.jpg
118963,STIX Mediterranean Grill,112 East 23rd St,New York,NY,New York / Tri-State Area,10010,US,2126736666x,40.7398,-73.985807,2,http://www.opentable.com/single.aspx?rid=118963,http://mobile.opentable.com/opentable/?restId=118963,https://www.opentable.com/img/restimages/118963.jpg
79393,Gyu-Kaku - Times Square,321 W 44th Street Unit 103,New York,NY,New York / Tri-State Area,10036,US,6466929115,40.759026,-73.989817,3,http://www.opentable.com/single.aspx?rid=79393,http://mobile.opentable.com/opentable/?restId=79393,https://www.opentable.com/img/restimages/79393.jpg
117064,Bait and Hook,231 Second Avenue,New York,NY,New York / Tri-State Area,10003,US,2122608015x,40.732351,-73.984955,2,http://www.opentable.com/single.aspx?rid=117064,http://mobile.opentable.com/opentable/?restId=117064,https://www.opentable.com/img/restimages/117064.jpg
92776,GAONNURI,1250 BROADWAY 39th Floor,New York,NY,New York / Tri-State Area,10001,US,2129719045x,40.748135,-73.988038,3,http://www.opentable.com/single.aspx?rid=92776,http://mobile.opentable.com/opentable/?restId=92776,https://www.opentable.com/img/restimages/92776.jpg
26101,Cibo,767 Second Avenue,New York,NY,New York / Tri-State Area,10017,US,2126811616x,40.749181,-73.972686,3,http://www.opentable.com/single.aspx?rid=26101,http://mobile.opentable.com/opentable/?restId=26101,https://www.opentable.com/img/restimages/26101.jpg
79909,Solera Restaurant,216 East 53rd Street,New York,NY,New York / Tri-State Area,10022,US,2126441166,40.75728,-73.968811,3,http://www.opentable.com/single.aspx?rid=79909,http://mobile.opentable.com/opentable/?restId=79909,https://www.opentable.com/img/restimages/79909.jpg
126202,American Cut- The Morrison Room,363 Greenwich St.,New York,NY,New York / Tri-State Area,10013,US,2122264736,40.719304,-74.010204,2,http://www.opentable.com/single.aspx?rid=126202,http://mobile.opentable.com/opentable/?restId=126202,https://www.opentable.com/img/restimages/126202.jpg
147496,The Leadbelly,14B ORCHARD ST,New York,NY,New York / Tri-State Area,10002,US,6465969142x,40.714979,-73.991662,3,http://www.opentable.com/single.aspx?rid=147496,http://mobile.opentable.com/opentable/?restId=147496,https://www.opentable.com/img/restimages/147496.jpg
110455,The Ellington,936 Amsterdam Ave,New York,NY,New York / Tri-State Area,10025,US,2122224050x,40.800714,-73.965906,2,http://www.opentable.com/single.aspx?rid=110455,http://mobile.opentable.com/opentable/?restId=110455,https://www.opentable.com/img/restimages/110455.jpg
107524,Agra Restaurant,807 Lexington Ave,New York,NY,New York / Tri-State Area,10065,US,2123088281,40.76426,-73.96656,2,http://www.opentable.com/single.aspx?rid=107524,http://mobile.opentable.com/opentable/?restId=107524,https://www.opentable.com/img/restimages/107524.jpg
14743,Gente,153 East 45th Street,New York,NY,New York / Tri-State Area,10017,US,2125575555,40.753071,-73.973967,3,http://www.opentable.com/single.aspx?rid=14743,http://mobile.opentable.com/opentable/?restId=14743,https://www.opentable.com/img/restimages/14743.jpg
140023,Huertas,107 1st Avenue,New York,NY,New York / Tri-State Area,10003,US,2122284490x,40.726852,-73.986248,3,http://www.opentable.com/single.aspx?rid=140023,http://mobile.opentable.com/opentable/?restId=140023,https://www.opentable.com/img/restimages/140023.jpg
4618,Cavatappo Grill,1712 First Avenue,New York,NY,New York / Tri-State Area,10128,US,2129879260,40.779,-73.948,2,http://www.opentable.com/single.aspx?rid=4618,http://mobile.opentable.com/opentable/?restId=4618,https://www.opentable.com/img/restimages/4618.jpg
116095,Sant Ambroeus SoHo,265 Lafayette Street,New York,NY,New York / Tri-State Area,10012,US,2129662770,40.723418,-73.996567,3,http://www.opentable.com/single.aspx?rid=116095,http://mobile.opentable.com/opentable/?restId=116095,https://www.opentable.com/img/restimages/116095.jpg
95752,Villa Mosconi,69 MacDougal St,New York,NY,New York / Tri-State Area,10012,US,2126730390,40.728519,-74.001873,3,http://www.opentable.com/single.aspx?rid=95752,http://mobile.opentable.com/opentable/?restId=95752,https://www.opentable.com/img/restimages/95752.jpg
116299,Restaurante La Libertad,3764 Broadway,New York,NY,New York / Tri-State Area,10032,US,2129399797x,40.833644,-73.945044,2,http://www.opentable.com/single.aspx?rid=116299,http://mobile.opentable.com/opentable/?restId=116299,https://www.opentable.com/img/restimages/116299.jpg
96586,L&W Oyster Co,254 5th Ave.,New York,NY,New York / Tri-State Area,10001,US,212-203-7772x,40.744908,-73.987358,3,http://www.opentable.com/single.aspx?rid=96586,http://mobile.opentable.com/opentable/?restId=96586,https://www.opentable.com/img/restimages/96586.jpg
118255,Village Pourhouse - Upper West Side,982 Amsterdam Avenue,New York,NY,New York / Tri-State Area,10025,US,2129792337,40.802149,-73.964694,2,http://www.opentable.com/single.aspx?rid=118255,http://mobile.opentable.com/opentable/?restId=118255,https://www.opentable.com/img/restimages/118255.jpg
91990,Bathtub Gin,132 9th Avenue,New York,NY,New York / Tri-State Area,10011,US,6465591671,40.743596,-74.003229,3,http://www.opentable.com/single.aspx?rid=91990,http://mobile.opentable.com/opentable/?restId=91990,https://www.opentable.com/img/restimages/91990.jpg
112936,Bo's Kitchen & Bar Room,6 West 24th Street,New York,NY,New York / Tri-State Area,10010,US,2122342373x,40.742595,-73.990285,2,http://www.opentable.com/single.aspx?rid=112936,http://mobile.opentable.com/opentable/?restId=112936,https://www.opentable.com/img/restimages/112936.jpg
116302,Mexican Festival Restaurant,2672 Broadway,New York,NY,New York / Tri-State Area,10025,US,6469129334x,40.798199,-73.968844,2,http://www.opentable.com/single.aspx?rid=116302,http://mobile.opentable.com/opentable/?restId=116302,https://www.opentable.com/img/restimages/116302.jpg
96886,Lady Mendls,56 Irving Place,New York,NY,New York / Tri-State Area,10003,US,2125334466,40.735954,-73.986954,3,http://www.opentable.com/single.aspx?rid=96886,http://mobile.opentable.com/opentable/?restId=96886,https://www.opentable.com/img/restimages/96886.jpg
71464,Spigolo,1471 2nd Ave,New York,NY,New York / Tri-State Area,10075,US,2127441100,40.771876,-73.95652,3,http://www.opentable.com/single.aspx?rid=71464,http://mobile.opentable.com/opentable/?restId=71464,https://www.opentable.com/img/restimages/71464.jpg
3297,Nougatine at Jean Georges,1 Central Park West,New York,NY,New York / Tri-State Area,10023,US,2122993900x,40.7684,-73.9816,3,http://www.opentable.com/single.aspx?rid=3297,http://mobile.opentable.com/opentable/?restId=3297,https://www.opentable.com/img/restimages/3297.jpg
4630,Amma,246 E. 51st Street,New York,NY,New York / Tri-State Area,10022,US,2126448330,40.756,-73.969,3,http://www.opentable.com/single.aspx?rid=4630,http://mobile.opentable.com/opentable/?restId=4630,https://www.opentable.com/img/restimages/4630.jpg
105667,Pepela,104 East 30th St.,New York,NY,New York / Tri-State Area,10016,US,2126581115x,40.744207,-73.982849,2,http://www.opentable.com/single.aspx?rid=105667,http://mobile.opentable.com/opentable/?restId=105667,https://www.opentable.com/img/restimages/105667.jpg
30496,Dos Caminos - Park,373 Park Ave South at 27th Street,New York,NY,New York / Tri-State Area,10016,US,2122941000x,40.742358,-73.984693,3,http://www.opentable.com/single.aspx?rid=30496,http://mobile.opentable.com/opentable/?restId=30496,https://www.opentable.com/img/restimages/30496.jpg
1523,Artisanal Fromagerie Bistro & Wine Bar,2 Park Avenue,New York,NY,New York / Tri-State Area,10016,US,2127258585x,40.746274,-73.982302,3,http://www.opentable.com/single.aspx?rid=1523,http://mobile.opentable.com/opentable/?restId=1523,https://www.opentable.com/img/restimages/1523.jpg
24571,Saxon + Parole,316 Bowery,New York,NY,New York / Tri-State Area,10012,US,2122540350x,40.72519,-73.992547,3,http://www.opentable.com/single.aspx?rid=24571,http://mobile.opentable.com/opentable/?restId=24571,https://www.opentable.com/img/restimages/24571.jpg
118093,Bread,20 Spring St,New York,NY,New York / Tri-State Area,10012,US,2123341015,40.721208,-73.995135,2,http://www.opentable.com/single.aspx?rid=118093,http://mobile.opentable.com/opentable/?restId=118093,https://www.opentable.com/img/restimages/118093.jpg
96595,Grifone,244 E. 46th St.,New York,NY,New York / Tri-State Area,10017,US,2124907275,40.752508,-73.971003,3,http://www.opentable.com/single.aspx?rid=96595,http://mobile.opentable.com/opentable/?restId=96595,https://www.opentable.com/img/restimages/96595.jpg
110521,Bill's Bar & Burger Downtown,85 West St.,New York,NY,New York / Tri-State Area,10006,US,2128943800,40.70983,-74.014744,2,http://www.opentable.com/single.aspx?rid=110521,http://mobile.opentable.com/opentable/?restId=110521,https://www.opentable.com/img/restimages/110521.jpg
90220,Moti Mahal Delux,1149 First Avenue,New York,NY,New York / Tri-State Area,10065,US,2123713535,40.762135,-73.960507,3,http://www.opentable.com/single.aspx?rid=90220,http://mobile.opentable.com/opentable/?restId=90220,https://www.opentable.com/img/restimages/90220.jpg
68032,Toloache - Upper East Side,"166 East 82nd St.,",New York,NY,New York / Tri-State Area,10028,US,2128614505,40.776615,-73.956879,3,http://www.opentable.com/single.aspx?rid=68032,http://mobile.opentable.com/opentable/?restId=68032,https://www.opentable.com/img/restimages/68032.jpg
65347,STK - NYC - Midtown,1114 Avenue of the Americas,New York,NY,New York / Tri-State Area,10036,US,6466242455x,40.75479,-73.982626,3,http://www.opentable.com/single.aspx?rid=65347,http://mobile.opentable.com/opentable/?restId=65347,https://www.opentable.com/img/restimages/65347.jpg
74104,YEFSI,1481 York Avenue,New York,NY,New York / Tri-State Area,10075,US,2125350293,40.771047,-73.951044,2,http://www.opentable.com/single.aspx?rid=74104,http://mobile.opentable.com/opentable/?restId=74104,https://www.opentable.com/img/restimages/74104.jpg
38509,Lavagna,545 E.5th St.,New York,NY,New York / Tri-State Area,10009,US,212-979-1005,40.724076,-73.982502,3,http://www.opentable.com/single.aspx?rid=38509,http://mobile.opentable.com/opentable/?restId=38509,https://www.opentable.com/img/restimages/38509.jpg
72295,Da Tommaso NYC,903 8th Avenue,New York,NY,New York / Tri-State Area,10019,US,2122651890,40.764647,-73.984428,2,http://www.opentable.com/single.aspx?rid=72295,http://mobile.opentable.com/opentable/?restId=72295,https://www.opentable.com/img/restimages/72295.jpg
131911,Casa Humo Latin Room,181 Essex Street,New York,NY,New York / Tri-State Area,10002,US,2124771550x,40.721947,-73.98659,3,http://www.opentable.com/single.aspx?rid=131911,http://mobile.opentable.com/opentable/?restId=131911,https://www.opentable.com/img/restimages/131911.jpg
108829,Foragers City Table,300 West 22nd St.,New York,NY,New York / Tri-State Area,10011,US,2122438888x,40.744761,-73.999509,3,http://www.opentable.com/single.aspx?rid=108829,http://mobile.opentable.com/opentable/?restId=108829,https://www.opentable.com/img/restimages/108829.jpg
114055,Zagara Restaurant and Wine Bar,216 7th Ave,New York,NY,New York / Tri-State Area,10011,US,6464908801x,40.743823,-73.996086,3,http://www.opentable.com/single.aspx?rid=114055,http://mobile.opentable.com/opentable/?restId=114055,https://www.opentable.com/img/restimages/114055.jpg
135634,Isola on Columbus,994 Columbus Ave,New York,NY,New York / Tri-State Area,10024,US,2126652970,40.801191,-73.96169,2,http://www.opentable.com/single.aspx?rid=135634,http://mobile.opentable.com/opentable/?restId=135634,https://www.opentable.com/img/restimages/135634.jpg
108907,Oda House,76 Ave. B,New York,NY,New York / Tri-State Area,10009,US,2123533838x,40.723984,-73.982179,2,http://www.opentable.com/single.aspx?rid=108907,http://mobile.opentable.com/opentable/?restId=108907,https://www.opentable.com/img/restimages/108907.jpg
88894,Freemans,8 Rivington Street,New York,NY,New York / Tri-State Area,10002,US,2124200012,40.721468,-73.992866,3,http://www.opentable.com/single.aspx?rid=88894,http://mobile.opentable.com/opentable/?restId=88894,https://www.opentable.com/img/restimages/88894.jpg
4035,Koi - Bryant Park,40 West 40th Street,New York,NY,New York / Tri-State Area,10018,US,2129213330x,40.7529,-73.9835,3,http://www.opentable.com/single.aspx?rid=4035,http://mobile.opentable.com/opentable/?restId=4035,https://www.opentable.com/img/restimages/4035.jpg
105079,Costata,206 Spring Street,New York,NY,New York / Tri-State Area,10012,US,212-334-3320x,40.725422,-74.003535,3,http://www.opentable.com/single.aspx?rid=105079,http://mobile.opentable.com/opentable/?restId=105079,https://www.opentable.com/img/restimages/105079.jpg
111187,Le Jardin Bistro,115 Avenue C,New York,NY,New York / Tri-State Area,10009,US,9174751213x,40.724454,-73.978874,3,http://www.opentable.com/single.aspx?rid=111187,http://mobile.opentable.com/opentable/?restId=111187,https://www.opentable.com/img/restimages/111187.jpg
58585,West Side Steakhouse,597 10th Ave,New York,NY,New York / Tri-State Area,10036,US,2125644803,40.76058,-73.99499,3,http://www.opentable.com/single.aspx?rid=58585,http://mobile.opentable.com/opentable/?restId=58585,https://www.opentable.com/img/restimages/58585.jpg
102115,Stella 34 Trattoria,Macy’s at Herald Square,New York,NY,New York / Tri-State Area,10001,US,2129679251x,40.750124,-73.988318,2,http://www.opentable.com/single.aspx?rid=102115,http://mobile.opentable.com/opentable/?restId=102115,https://www.opentable.com/img/restimages/102115.jpg
84664,Cafe Joul,1070 First Ave.,New York,NY,New York / Tri-State Area,10022,US,2127593131x,40.758985,-73.962458,3,http://www.opentable.com/single.aspx?rid=84664,http://mobile.opentable.com/opentable/?restId=84664,https://www.opentable.com/img/restimages/84664.jpg
306,Peasant,194 Elizabeth Street,New York,NY,New York / Tri-State Area,10012,US,2129659511,40.721765,-73.994245,3,http://www.opentable.com/single.aspx?rid=306,http://mobile.opentable.com/opentable/?restId=306,https://www.opentable.com/img/restimages/306.jpg
84658,Kokum,106 Lexington Avenue,New York,NY,New York / Tri-State Area,10016,US,2126846842,40.742329,-73.982868,2,http://www.opentable.com/single.aspx?rid=84658,http://mobile.opentable.com/opentable/?restId=84658,https://www.opentable.com/img/restimages/84658.jpg
73315,Brindle Room,277 E. 10th St.,New York,NY,New York / Tri-State Area,10009,US,2125299702,40.728287,-73.982699,2,http://www.opentable.com/single.aspx?rid=73315,http://mobile.opentable.com/opentable/?restId=73315,https://www.opentable.com/img/restimages/73315.jpg
98041,Barbes Restaurant,19-21 East 36th Street,New York,NY,New York / Tri-State Area,10016,US,2126840215,40.749112,-73.982171,2,http://www.opentable.com/single.aspx?rid=98041,http://mobile.opentable.com/opentable/?restId=98041,https://www.opentable.com/img/restimages/98041.jpg
104029,Serafina Fabulous Grill,33 East 61st Street,New York,NY,New York / Tri-State Area,10022,US,2127029898x,40.764725,-73.969903,2,http://www.opentable.com/single.aspx?rid=104029,http://mobile.opentable.com/opentable/?restId=104029,https://www.opentable.com/img/restimages/104029.jpg
102586,Carolines on Broadway,1626 Broadway,New York,NY,New York / Tri-State Area,10019,US,2127574100,40.76106,-73.984011,2,http://www.opentable.com/single.aspx?rid=102586,http://mobile.opentable.com/opentable/?restId=102586,https://www.opentable.com/img/restimages/102586.jpg
38155,Al Bustan,319 East 53rd Street,New York,NY,New York / Tri-State Area,10022,US,2127595933,40.756566,-73.966111,3,http://www.opentable.com/single.aspx?rid=38155,http://mobile.opentable.com/opentable/?restId=38155,https://www.opentable.com/img/restimages/38155.jpg
64360,Zio,17 West 19th St.,New York,NY,New York / Tri-State Area,10011,US,2123521700x,40.739565,-73.992479,3,http://www.opentable.com/single.aspx?rid=64360,http://mobile.opentable.com/opentable/?restId=64360,https://www.opentable.com/img/restimages/64360.jpg
49918,Tulsi,211 East 46th St.,New York,NY,New York / Tri-State Area,10017,US,2128880820,40.753189,-73.971656,3,http://www.opentable.com/single.aspx?rid=49918,http://mobile.opentable.com/opentable/?restId=49918,https://www.opentable.com/img/restimages/49918.jpg
109102,Asia Roma,40 Mulberry St,New York,NY,New York / Tri-State Area,10013,US,2123851133,40.714897,-73.999547,2,http://www.opentable.com/single.aspx?rid=109102,http://mobile.opentable.com/opentable/?restId=109102,https://www.opentable.com/img/restimages/109102.jpg
110293,Good Enough to Eat,520 Columbus Avenue,New York,NY,New York / Tri-State Area,10024,US,2125793194x,40.785856,-73.972699,2,http://www.opentable.com/single.aspx?rid=110293,http://mobile.opentable.com/opentable/?restId=110293,https://www.opentable.com/img/restimages/110293.jpg
85645,Yopparai,151 Rivington St.,New York,NY,New York / Tri-State Area,10002,US,2127777253,40.719193,-73.985528,3,http://www.opentable.com/single.aspx?rid=85645,http://mobile.opentable.com/opentable/?restId=85645,https://www.opentable.com/img/restimages/85645.jpg
58072,Sfoglia,135 E. 92nd Street,New York,NY,New York / Tri-State Area,10028,US,2128311402,40.783528,-73.952998,3,http://www.opentable.com/single.aspx?rid=58072,http://mobile.opentable.com/opentable/?restId=58072,https://www.opentable.com/img/restimages/58072.jpg
109144,The Italian Food Center,186 Grand Street,New York,NY,New York / Tri-State Area,10013,US,2122561600,40.719525,-73.997373,2,http://www.opentable.com/single.aspx?rid=109144,http://mobile.opentable.com/opentable/?restId=109144,https://www.opentable.com/img/restimages/109144.jpg
103345,The Quarter,522 Hudson Street,New York,NY,New York / Tri-State Area,10014,US,2126913252x,40.733978,-74.006076,2,http://www.opentable.com/single.aspx?rid=103345,http://mobile.opentable.com/opentable/?restId=103345,https://www.opentable.com/img/restimages/103345.jpg
5734,Brasserie Ruhlmann,45 Rockefeller Plaza,New York,NY,New York / Tri-State Area,10011,US,2129742020,40.759,-73.978,3,http://www.opentable.com/single.aspx?rid=5734,http://mobile.opentable.com/opentable/?restId=5734,https://www.opentable.com/img/restimages/5734.jpg
59842,Abbottega,14 Bedford Street,New York,NY,New York / Tri-State Area,10014,US,2126759080x,40.729098,-74.003484,3,http://www.opentable.com/single.aspx?rid=59842,http://mobile.opentable.com/opentable/?restId=59842,https://www.opentable.com/img/restimages/59842.jpg
2409,City Lobster & Steakhouse,121 West 49th Street,New York,NY,New York / Tri-State Area,10020,US,2123541717x,40.7595,-73.9816,3,http://www.opentable.com/single.aspx?rid=2409,http://mobile.opentable.com/opentable/?restId=2409,https://www.opentable.com/img/restimages/2409.jpg
45151,Restaurant Nippon,155 East 52nd Street,New York,NY,New York / Tri-State Area,10022,US,2126885941,40.757537,-73.970333,3,http://www.opentable.com/single.aspx?rid=45151,http://mobile.opentable.com/opentable/?restId=45151,https://www.opentable.com/img/restimages/45151.jpg
105739,Amigos,2888 Broadway,New York,NY,New York / Tri-State Area,10025,US,2128641143,40.805647,-73.965262,2,http://www.opentable.com/single.aspx?rid=105739,http://mobile.opentable.com/opentable/?restId=105739,https://www.opentable.com/img/restimages/105739.jpg
111523,Rintintin,14 Spring Street,New York,NY,New York / Tri-State Area,10012,US,6466660114x,40.721293,-73.994864,3,http://www.opentable.com/single.aspx?rid=111523,http://mobile.opentable.com/opentable/?restId=111523,https://www.opentable.com/img/restimages/111523.jpg
67243,Petite Abeille,401 East 20th Street,New York,NY,New York / Tri-State Area,10010,US,2127271505,40.735006,-73.979834,2,http://www.opentable.com/single.aspx?rid=67243,http://mobile.opentable.com/opentable/?restId=67243,https://www.opentable.com/img/restimages/67243.jpg
72034,Fratelli Brick Oven Pizza & Wine Bar,1317 First Ave,New York,NY,New York / Tri-State Area,10021,US,2122496093,40.76695,-73.956806,2,http://www.opentable.com/single.aspx?rid=72034,http://mobile.opentable.com/opentable/?restId=72034,https://www.opentable.com/img/restimages/72034.jpg
5533,Peacock Alley - Waldorf Astoria New York,Waldorf Astoria New York,New York,NY,New York / Tri-State Area,10022,US,2128721275x,40.756,-73.974,3,http://www.opentable.com/single.aspx?rid=5533,http://mobile.opentable.com/opentable/?restId=5533,https://www.opentable.com/img/restimages/5533.jpg
5606,La Rivista,313 West 46th Street,New York,NY,New York / Tri-State Area,10036,US,2122451707,40.76,-73.988,3,http://www.opentable.com/single.aspx?rid=5606,http://mobile.opentable.com/opentable/?restId=5606,https://www.opentable.com/img/restimages/5606.jpg
30520,Dos Caminos - SoHo,475 West Broadway at Houston Street,New York,NY,New York / Tri-State Area,10012,US,2122774300x,40.726568,-73.999865,3,http://www.opentable.com/single.aspx?rid=30520,http://mobile.opentable.com/opentable/?restId=30520,https://www.opentable.com/img/restimages/30520.jpg
75,SOUTHGATE Bar & Restaurant,154 Central Park South,New York,NY,New York / Tri-State Area,10019,US,2124845120x,40.766336,-73.977801,3,http://www.opentable.com/single.aspx?rid=75,http://mobile.opentable.com/opentable/?restId=75,https://www.opentable.com/img/restimages/75.jpg
30502,Ocean Grill New York,384 Columbus Avenue at 78th Street,New York,NY,New York / Tri-State Area,10024,US,2125792300x,40.781266,-73.97597,3,http://www.opentable.com/single.aspx?rid=30502,http://mobile.opentable.com/opentable/?restId=30502,https://www.opentable.com/img/restimages/30502.jpg
6666,Yuva,230 East 58th,New York,NY,New York / Tri-State Area,10022,US,2123390090,40.760619,-73.96631,3,http://www.opentable.com/single.aspx?rid=6666,http://mobile.opentable.com/opentable/?restId=6666,https://www.opentable.com/img/restimages/6666.jpg
96214,The Beatrice Inn,285 West 12th Street,New York,NY,New York / Tri-State Area,10014,US,(917) 566-7400x,40.737647,-74.004087,3,http://www.opentable.com/single.aspx?rid=96214,http://mobile.opentable.com/opentable/?restId=96214,https://www.opentable.com/img/restimages/96214.jpg
118318,Church Publick,78 Reade Street,New York,NY,New York / Tri-State Area,10007,US,2122673000x,40.715428,-74.007203,2,http://www.opentable.com/single.aspx?rid=118318,http://mobile.opentable.com/opentable/?restId=118318,https://www.opentable.com/img/restimages/118318.jpg
115621,Le Baratin,26 Greenwich Ave,New York,NY,New York / Tri-State Area,10011,US,2129331080x,40.735025,-73.999857,2,http://www.opentable.com/single.aspx?rid=115621,http://mobile.opentable.com/opentable/?restId=115621,https://www.opentable.com/img/restimages/115621.jpg
65758,Left Bank,117 Perry Street,New York,NY,New York / Tri-State Area,10014,US,2127271170x,40.735127,-74.00673,3,http://www.opentable.com/single.aspx?rid=65758,http://mobile.opentable.com/opentable/?restId=65758,https://www.opentable.com/img/restimages/65758.jpg
95107,Galli,45 Mercer St,New York,NY,New York / Tri-State Area,10013,US,2129669288x,40.721615,-74.001333,2,http://www.opentable.com/single.aspx?rid=95107,http://mobile.opentable.com/opentable/?restId=95107,https://www.opentable.com/img/restimages/95107.jpg
93754,Forcella Park Ave,377 Park Ave. South,New York,NY,New York / Tri-State Area,10003,US,2124481116x,40.742551,-73.985037,2,http://www.opentable.com/single.aspx?rid=93754,http://mobile.opentable.com/opentable/?restId=93754,https://www.opentable.com/img/restimages/93754.jpg
31924,Armani Ristorante 5th Avenue,717 5th Avenue,New York,NY,New York / Tri-State Area,10022,US,(212) 207-1902x,40.762142,-73.974562,3,http://www.opentable.com/single.aspx?rid=31924,http://mobile.opentable.com/opentable/?restId=31924,https://www.opentable.com/img/restimages/31924.jpg
77257,Vitae,4 East 46th St.,New York,NY,New York / Tri-State Area,10017,US,2126823562,40.755762,-73.978416,3,http://www.opentable.com/single.aspx?rid=77257,http://mobile.opentable.com/opentable/?restId=77257,https://www.opentable.com/img/restimages/77257.jpg
112906,Lotus Blue Restaurant Bar,110 Reade Street,New York,NY,New York / Tri-State Area,10013,US,2122673777x,40.716045,-74.008453,2,http://www.opentable.com/single.aspx?rid=112906,http://mobile.opentable.com/opentable/?restId=112906,https://www.opentable.com/img/restimages/112906.jpg
49417,Riverpark,450 East 29th Street,New York,NY,New York / Tri-State Area,10016,US,2127299790x,40.739384,-73.973595,3,http://www.opentable.com/single.aspx?rid=49417,http://mobile.opentable.com/opentable/?restId=49417,https://www.opentable.com/img/restimages/49417.jpg
91795,La Marina,348 Dyckman St.,New York,NY,New York / Tri-State Area,10034,US,(212) 567-6300x,40.868055,-73.930321,2,http://www.opentable.com/single.aspx?rid=91795,http://mobile.opentable.com/opentable/?restId=91795,https://www.opentable.com/img/restimages/91795.jpg
78136,Fuji Sushi,238 West 56th Street,New York,NY,New York / Tri-State Area,10019,US,2125869888,40.765716,-73.982713,2,http://www.opentable.com/single.aspx?rid=78136,http://mobile.opentable.com/opentable/?restId=78136,https://www.opentable.com/img/restimages/78136.jpg
52453,Statler Grill,136 W. 33rd Street,New York,NY,New York / Tri-State Area,10001,US,2127363353,40.749551,-73.989376,3,http://www.opentable.com/single.aspx?rid=52453,http://mobile.opentable.com/opentable/?restId=52453,https://www.opentable.com/img/restimages/52453.jpg
87664,Dopo East,345 East 62 St.,New York,NY,New York / Tri-State Area,10065,US,6464846548x,40.761809,-73.961343,3,http://www.opentable.com/single.aspx?rid=87664,http://mobile.opentable.com/opentable/?restId=87664,https://www.opentable.com/img/restimages/87664.jpg
41734,Raymi,43 W. 24th St.,New York,NY,New York / Tri-State Area,10010,US,2129291200x,40.743381,-73.991292,3,http://www.opentable.com/single.aspx?rid=41734,http://mobile.opentable.com/opentable/?restId=41734,https://www.opentable.com/img/restimages/41734.jpg
68281,V-Note Organic Wine Bar & Vegan Bistro,1522 First Avenue,New York,NY,New York / Tri-State Area,10075,US,2122495009,40.772618,-73.952116,2,http://www.opentable.com/single.aspx?rid=68281,http://mobile.opentable.com/opentable/?restId=68281,https://www.opentable.com/img/restimages/68281.jpg
42277,Angus' Cafe Bistro,258 West 44th Street,New York,NY,New York / Tri-State Area,10036,US,2122219222x,40.758303,-73.988341,3,http://www.opentable.com/single.aspx?rid=42277,http://mobile.opentable.com/opentable/?restId=42277,https://www.opentable.com/img/restimages/42277.jpg
85390,Tony's Di Napoli- UES,1081 Third Avenue,New York,NY,New York / Tri-State Area,10065,US,2128886333,40.764341,-73.96408,2,http://www.opentable.com/single.aspx?rid=85390,http://mobile.opentable.com/opentable/?restId=85390,https://www.opentable.com/img/restimages/85390.jpg
68572,Tir Na Nog Irish Bar & Grill - Times Square,315 West 39th Street,New York,NY,New York / Tri-State Area,10018,US,2127600072x,40.755903,-73.992161,3,http://www.opentable.com/single.aspx?rid=68572,http://mobile.opentable.com/opentable/?restId=68572,https://www.opentable.com/img/restimages/68572.jpg
13372,Palm Restaurant - NYC Too,840 Second Avenue,New York,NY,New York / Tri-State Area,10017,US,2126975198,40.751597,-73.970901,3,http://www.opentable.com/single.aspx?rid=13372,http://mobile.opentable.com/opentable/?restId=13372,https://www.opentable.com/img/restimages/13372.jpg
69307,Circus - NYC,132 East 61 Street,New York,NY,New York / Tri-State Area,10065,US,2122232965,40.763578,-73.967764,3,http://www.opentable.com/single.aspx?rid=69307,http://mobile.opentable.com/opentable/?restId=69307,https://www.opentable.com/img/restimages/69307.jpg
104017,Amazing 66,66 Mott Street,New York,NY,New York / Tri-State Area,10013,US,2123340099,40.716177,-73.998078,2,http://www.opentable.com/single.aspx?rid=104017,http://mobile.opentable.com/opentable/?restId=104017,https://www.opentable.com/img/restimages/104017.jpg
41680,I Sodi,105 Christopher Street,New York,NY,New York / Tri-State Area,10014,US,2124145774,40.733476,-74.005008,3,http://www.opentable.com/single.aspx?rid=41680,http://mobile.opentable.com/opentable/?restId=41680,https://www.opentable.com/img/restimages/41680.jpg
57439,Luce Restaurant & Enoteca,2014 Broadway,New York,NY,New York / Tri-State Area,10023,US,2127241400,40.775908,-73.982022,3,http://www.opentable.com/single.aspx?rid=57439,http://mobile.opentable.com/opentable/?restId=57439,https://www.opentable.com/img/restimages/57439.jpg
19141,Novecento New York,343 West Broadway,New York,NY,New York / Tri-State Area,10013,US,2129254706,40.722655,-74.00352,3,http://www.opentable.com/single.aspx?rid=19141,http://mobile.opentable.com/opentable/?restId=19141,https://www.opentable.com/img/restimages/19141.jpg
112546,Casa Mezcal,86 Orchard St,New York,NY,New York / Tri-State Area,10002,US,2127772600x,40.71796,-73.990232,3,http://www.opentable.com/single.aspx?rid=112546,http://mobile.opentable.com/opentable/?restId=112546,https://www.opentable.com/img/restimages/112546.jpg
13693,Petrossian - New York,182 West 58th Street,New York,NY,New York / Tri-State Area,10019,US,2122452214,40.765996,-73.979042,3,http://www.opentable.com/single.aspx?rid=13693,http://mobile.opentable.com/opentable/?restId=13693,https://www.opentable.com/img/restimages/13693.jpg
108289,Petit Poulet,52 West 33rd Street,New York,NY,New York / Tri-State Area,10001,US,2122440440x,40.748711,-73.98733,2,http://www.opentable.com/single.aspx?rid=108289,http://mobile.opentable.com/opentable/?restId=108289,https://www.opentable.com/img/restimages/108289.jpg
67705,Ithaka,308 East 86th Street,New York,NY,New York / Tri-State Area,10028,US,2126289100,40.777503,-73.951313,3,http://www.opentable.com/single.aspx?rid=67705,http://mobile.opentable.com/opentable/?restId=67705,https://www.opentable.com/img/restimages/67705.jpg
102514,Cucina & Co.,30 Rockefeller Center,New York,NY,New York / Tri-State Area,10112,US,2123327630x,40.75872,-73.97848,2,http://www.opentable.com/single.aspx?rid=102514,http://mobile.opentable.com/opentable/?restId=102514,https://www.opentable.com/img/restimages/102514.jpg
73615,La Mirabelle,102 W. 86th St.,New York,NY,New York / Tri-State Area,10024,US,2124960458,40.786764,-73.972399,3,http://www.opentable.com/single.aspx?rid=73615,http://mobile.opentable.com/opentable/?restId=73615,https://www.opentable.com/img/restimages/73615.jpg
20197,Central Park BoatHouse,E 72nd,New York,NY,New York / Tri-State Area,10028,US,2125172233,40.769751,-73.960592,3,http://www.opentable.com/single.aspx?rid=20197,http://mobile.opentable.com/opentable/?restId=20197,https://www.opentable.com/img/restimages/20197.jpg
106816,the Nuaa,1122 1st Ave,New York,NY,New York / Tri-State Area,10065,US,2128882899,40.761072,-73.960516,3,http://www.opentable.com/single.aspx?rid=106816,http://mobile.opentable.com/opentable/?restId=106816,https://www.opentable.com/img/restimages/106816.jpg
129340,Barley and Grain,421 Amsterdam Ave,New York,NY,New York / Tri-State Area,10024,US,6463603231x,40.7839,-73.977605,3,http://www.opentable.com/single.aspx?rid=129340,http://mobile.opentable.com/opentable/?restId=129340,https://www.opentable.com/img/restimages/129340.jpg
100417,Malai Marke,318 East 6th St.,New York,NY,New York / Tri-State Area,10003,US,2127777729,40.726888,-73.987555,2,http://www.opentable.com/single.aspx?rid=100417,http://mobile.opentable.com/opentable/?restId=100417,https://www.opentable.com/img/restimages/100417.jpg
43783,Zengo - NYC,622 Third Avenue,New York,NY,New York / Tri-State Area,10017,US,2128088110,40.750093,-73.975875,3,http://www.opentable.com/single.aspx?rid=43783,http://mobile.opentable.com/opentable/?restId=43783,https://www.opentable.com/img/restimages/43783.jpg
63865,Luna Rossa Ristorante,347 East 85th Street,New York,NY,New York / Tri-State Area,10028,US,(212) 517-3118x,40.776545,-73.95041,3,http://www.opentable.com/single.aspx?rid=63865,http://mobile.opentable.com/opentable/?restId=63865,https://www.opentable.com/img/restimages/63865.jpg
102823,Cocotte,110 Thompson St.,New York,NY,New York / Tri-State Area,10012,US,2129659100x,40.725747,-74.001884,3,http://www.opentable.com/single.aspx?rid=102823,http://mobile.opentable.com/opentable/?restId=102823,https://www.opentable.com/img/restimages/102823.jpg
110206,Paulaner Brauhaus & Restaurant NYC,265 Bowery,New York,NY,New York / Tri-State Area,10002,US,2127800300x,40.723429,-73.992633,2,http://www.opentable.com/single.aspx?rid=110206,http://mobile.opentable.com/opentable/?restId=110206,https://www.opentable.com/img/restimages/110206.jpg
102817,Parker & Quinn,64 W. 39th Street,New York,NY,New York / Tri-State Area,10018,US,2127290277,40.752723,-73.985028,2,http://www.opentable.com/single.aspx?rid=102817,http://mobile.opentable.com/opentable/?restId=102817,https://www.opentable.com/img/restimages/102817.jpg
46576,Sant Ambroeus - West Village,259 West 4th Street,New York,NY,New York / Tri-State Area,10014,US,2126049254,40.735421,-74.003143,3,http://www.opentable.com/single.aspx?rid=46576,http://mobile.opentable.com/opentable/?restId=46576,https://www.opentable.com/img/restimages/46576.jpg
13954,Johnny Utah's,25 West 51st Street,New York,NY,New York / Tri-State Area,10016,US,2122658824,40.760262,-73.979319,3,http://www.opentable.com/single.aspx?rid=13954,http://mobile.opentable.com/opentable/?restId=13954,https://www.opentable.com/img/restimages/13954.jpg
97837,Benares - Tribeca,45 Murray Street,New York,NY,New York / Tri-State Area,10007,US,2127664900,40.714086,-74.009236,2,http://www.opentable.com/single.aspx?rid=97837,http://mobile.opentable.com/opentable/?restId=97837,https://www.opentable.com/img/restimages/97837.jpg
102103,Pasta Lovers Trattoria,142 West 49th Street,New York,NY,New York / Tri-State Area,10019,US,2128191155,40.759915,-73.983009,2,http://www.opentable.com/single.aspx?rid=102103,http://mobile.opentable.com/opentable/?restId=102103,https://www.opentable.com/img/restimages/102103.jpg
35893,Docks Oyster Bar and Seafood Grill,633 Third Avenue,New York,NY,New York / Tri-State Area,10017,US,2129868080x,40.749793,-73.974831,3,http://www.opentable.com/single.aspx?rid=35893,http://mobile.opentable.com/opentable/?restId=35893,https://www.opentable.com/img/restimages/35893.jpg
25384,Nirvana,346 Lexington Avenue,New York,NY,New York / Tri-State Area,10001,US,2129830000,40.749985,-73.977439,3,http://www.opentable.com/single.aspx?rid=25384,http://mobile.opentable.com/opentable/?restId=25384,https://www.opentable.com/img/restimages/25384.jpg
16819,Canyon Road,1470 1st Avenue,New York,NY,New York / Tri-State Area,10021,US,2127341600,40.770698,-73.953866,2,http://www.opentable.com/single.aspx?rid=16819,http://mobile.opentable.com/opentable/?restId=16819,https://www.opentable.com/img/restimages/16819.jpg
96478,Auden Bistro & Bar,50 Central Park South,New York,NY,New York / Tri-State Area,10019,US,2125216125x,40.765386,-73.976074,3,http://www.opentable.com/single.aspx?rid=96478,http://mobile.opentable.com/opentable/?restId=96478,https://www.opentable.com/img/restimages/96478.jpg
116047,Ancora,8 Stone Street,New York,NY,New York / Tri-State Area,10004,US,6467520213,40.703961,-74.012349,2,http://www.opentable.com/single.aspx?rid=116047,http://mobile.opentable.com/opentable/?restId=116047,https://www.opentable.com/img/restimages/116047.jpg
103219,The Copenhagen,13 Laight St.,New York,NY,New York / Tri-State Area,10001,US,2129251313x,40.72169,-74.006052,2,http://www.opentable.com/single.aspx?rid=103219,http://mobile.opentable.com/opentable/?restId=103219,https://www.opentable.com/img/restimages/103219.jpg
88456,La Tarte Flambee,1750 2nd Avenue,New York,NY,New York / Tri-State Area,10128,US,2128600826,40.781107,-73.949001,2,http://www.opentable.com/single.aspx?rid=88456,http://mobile.opentable.com/opentable/?restId=88456,https://www.opentable.com/img/restimages/88456.jpg
7298,Tre Dici,128 West 26th Street,New York,NY,New York / Tri-State Area,10001,US,2122438183x,40.745156,-73.992284,3,http://www.opentable.com/single.aspx?rid=7298,http://mobile.opentable.com/opentable/?restId=7298,https://www.opentable.com/img/restimages/7298.jpg
106270,Bar Rique,103 West 70th Street,New York,NY,New York / Tri-State Area,10023,US,646-596-9700x,40.776292,-73.979976,2,http://www.opentable.com/single.aspx?rid=106270,http://mobile.opentable.com/opentable/?restId=106270,https://www.opentable.com/img/restimages/106270.jpg
7868,Balthazar,80 Spring Street,New York,NY,New York / Tri-State Area,10012,US,2129651414,40.722759,-73.998237,3,http://www.opentable.com/single.aspx?rid=7868,http://mobile.opentable.com/opentable/?restId=7868,https://www.opentable.com/img/restimages/7868.jpg
20917,Roc Restaurant,190 - A Duane Street,New York,NY,New York / Tri-State Area,10013,US,2126253333x,40.717412,-74.010282,3,http://www.opentable.com/single.aspx?rid=20917,http://mobile.opentable.com/opentable/?restId=20917,https://www.opentable.com/img/restimages/20917.jpg
5920,Lattanzi,361 West 46th Street,New York,NY,New York / Tri-State Area,10036,US,2123150980x,40.760897,-73.989969,3,http://www.opentable.com/single.aspx?rid=5920,http://mobile.opentable.com/opentable/?restId=5920,https://www.opentable.com/img/restimages/5920.jpg
74353,Bar.Vetro,222 East 58th Street,New York,NY,New York / Tri-State Area,10022,US,2123080112,40.756506,-73.96684,2,http://www.opentable.com/single.aspx?rid=74353,http://mobile.opentable.com/opentable/?restId=74353,https://www.opentable.com/img/restimages/74353.jpg
57079,Cipriani Downtown,376 West Broadway,New York,NY,New York / Tri-State Area,10012,US,2123430999x,40.72362,-74.00274,3,http://www.opentable.com/single.aspx?rid=57079,http://mobile.opentable.com/opentable/?restId=57079,https://www.opentable.com/img/restimages/57079.jpg
149734,Ecco,124 Chambers St.,New York,NY,New York / Tri-State Area,10007,US,2122277074,40.715135,-74.00885,3,http://www.opentable.com/single.aspx?rid=149734,http://mobile.opentable.com/opentable/?restId=149734,https://www.opentable.com/img/restimages/149734.jpg
58891,Socarrat Paella Bar - Nolita,284 Mulberry St.,New York,NY,New York / Tri-State Area,10012,US,2122190101x,40.724541,-73.995099,3,http://www.opentable.com/single.aspx?rid=58891,http://mobile.opentable.com/opentable/?restId=58891,https://www.opentable.com/img/restimages/58891.jpg
60130,Mont Blanc,315 West 48th Street,New York,NY,New York / Tri-State Area,10019,US,2125829648,40.76133,-73.987653,3,http://www.opentable.com/single.aspx?rid=60130,http://mobile.opentable.com/opentable/?restId=60130,https://www.opentable.com/img/restimages/60130.jpg
105370,La Bergamote,177 9th Ave.,New York,NY,New York / Tri-State Area,10011,US,2126279010,40.745055,-74.002446,2,http://www.opentable.com/single.aspx?rid=105370,http://mobile.opentable.com/opentable/?restId=105370,https://www.opentable.com/img/restimages/105370.jpg
103048,Arbor Bistro,226 W. Houston St.,New York,NY,New York / Tri-State Area,10014,US,2122557888,40.728707,-74.004855,2,http://www.opentable.com/single.aspx?rid=103048,http://mobile.opentable.com/opentable/?restId=103048,https://www.opentable.com/img/restimages/103048.jpg
98683,La Bella Vita,163 Mulberry Street,New York,NY,New York / Tri-State Area,10013,US,2127758484,40.719713,-73.997235,2,http://www.opentable.com/single.aspx?rid=98683,http://mobile.opentable.com/opentable/?restId=98683,https://www.opentable.com/img/restimages/98683.jpg
94237,Bistro Le Steak,1309 Third Ave.,New York,NY,New York / Tri-State Area,10022,US,2125173800x,40.771465,-73.958989,2,http://www.opentable.com/single.aspx?rid=94237,http://mobile.opentable.com/opentable/?restId=94237,https://www.opentable.com/img/restimages/94237.jpg
102478,Blue Ribbon Bakery Kitchen,35 Downing St.,New York,NY,New York / Tri-State Area,10014,US,2123370404,40.729391,-74.00378,3,http://www.opentable.com/single.aspx?rid=102478,http://mobile.opentable.com/opentable/?restId=102478,https://www.opentable.com/img/restimages/102478.jpg
72937,40/40 Club,6 W. 25th St.,New York,NY,New York / Tri-State Area,10010,US,2128324040x,40.743071,-73.989314,3,http://www.opentable.com/single.aspx?rid=72937,http://mobile.opentable.com/opentable/?restId=72937,https://www.opentable.com/img/restimages/72937.jpg
60169,Lusardi's Restaurant,1494 Second Ave,New York,NY,New York / Tri-State Area,10075,US,2122492020,40.772368,-73.955387,3,http://www.opentable.com/single.aspx?rid=60169,http://mobile.opentable.com/opentable/?restId=60169,https://www.opentable.com/img/restimages/60169.jpg
87673,Sangria 46,338 W. 46th St.,New York,NY,New York / Tri-State Area,10036,US,2125818482x,40.760325,-73.989457,2,http://www.opentable.com/single.aspx?rid=87673,http://mobile.opentable.com/opentable/?restId=87673,https://www.opentable.com/img/restimages/87673.jpg
148354,Sakebar SHiGURE,277 Church street,New York,NY,New York / Tri-State Area,10013,US,2129650200,40.718536,-74.004754,3,http://www.opentable.com/single.aspx?rid=148354,http://mobile.opentable.com/opentable/?restId=148354,https://www.opentable.com/img/restimages/148354.jpg
2792,Frankie & Johnnie's Steakhouse - Manhattan,32 West 37th,New York,NY,New York / Tri-State Area,10018,US,2129478940,40.7507,-73.9841,3,http://www.opentable.com/single.aspx?rid=2792,http://mobile.opentable.com/opentable/?restId=2792,https://www.opentable.com/img/restimages/2792.jpg
48841,Red Rooster Harlem,310 Lenox Avenue,New York,NY,New York / Tri-State Area,10027,US,2127929001,40.808147,-73.944909,3,http://www.opentable.com/single.aspx?rid=48841,http://mobile.opentable.com/opentable/?restId=48841,https://www.opentable.com/img/restimages/48841.jpg
76312,Cafe Mocha Espresso Wine Bar,116 2nd Ave,New York,NY,New York / Tri-State Area,10003,US,2122531046x,40.727731,-73.987842,2,http://www.opentable.com/single.aspx?rid=76312,http://mobile.opentable.com/opentable/?restId=76312,https://www.opentable.com/img/restimages/76312.jpg
139741,The Eddy,342 East 6th Street,New York,NY,New York / Tri-State Area,10003,US,6468959884x,40.726459,-73.986646,2,http://www.opentable.com/single.aspx?rid=139741,http://mobile.opentable.com/opentable/?restId=139741,https://www.opentable.com/img/restimages/139741.jpg
114217,Hummus Kitchen,768 9th Ave,New York,NY,New York / Tri-State Area,10016,US,2123333009x,40.764263,-73.987967,2,http://www.opentable.com/single.aspx?rid=114217,http://mobile.opentable.com/opentable/?restId=114217,https://www.opentable.com/img/restimages/114217.jpg
59734,Empellon Taqueria,230 West 4th,New York,NY,New York / Tri-State Area,10014,US,2123670999,40.734124,-74.003031,3,http://www.opentable.com/single.aspx?rid=59734,http://mobile.opentable.com/opentable/?restId=59734,https://www.opentable.com/img/restimages/59734.jpg
70681,Caffe Storico,New-York Historical Society,New York,NY,New York / Tri-State Area,10024,US,2124859211x,40.77944,-73.973911,3,http://www.opentable.com/single.aspx?rid=70681,http://mobile.opentable.com/opentable/?restId=70681,https://www.opentable.com/img/restimages/70681.jpg
19306,Madison & Vine,299 Madison Avenue,New York,NY,New York / Tri-State Area,10017,US,2128675535x,40.752117,-73.97942,3,http://www.opentable.com/single.aspx?rid=19306,http://mobile.opentable.com/opentable/?restId=19306,https://www.opentable.com/img/restimages/19306.jpg
72853,Onegin,391 Avenue of the Americas,New York,NY,New York / Tri-State Area,10014,US,2129248001,40.733294,-73.999995,3,http://www.opentable.com/single.aspx?rid=72853,http://mobile.opentable.com/opentable/?restId=72853,https://www.opentable.com/img/restimages/72853.jpg
96688,Caffe Linda,145 E. 49th Street,New York,NY,New York / Tri-State Area,10017,US,6464971818,40.755584,-73.97217,2,http://www.opentable.com/single.aspx?rid=96688,http://mobile.opentable.com/opentable/?restId=96688,https://www.opentable.com/img/restimages/96688.jpg
108028,Bistro Citron - Manhattan,473 Columbus Ave.,New York,NY,New York / Tri-State Area,10024,US,2124009401,40.784307,-73.973578,3,http://www.opentable.com/single.aspx?rid=108028,http://mobile.opentable.com/opentable/?restId=108028,https://www.opentable.com/img/restimages/108028.jpg
107296,Bangkok House,360 West 46th St.,New York,NY,New York / Tri-State Area,10036,US,2125415943,40.76049,-73.990196,2,http://www.opentable.com/single.aspx?rid=107296,http://mobile.opentable.com/opentable/?restId=107296,https://www.opentable.com/img/restimages/107296.jpg
